stop_id,stop_name,stop_desc,stop_lat,stop_lon,zone_id,location_type,parent_station,vehicle_type
0:3900,DOUBLE TREE STREET at PARKROSE ROAD,no 81,35.025435,-90.103444,,0,1:3900,3
0:SPAWELEF,SOUTH PARKWAY@WELLINGTON,st 2281 (no 1238),35.107321,-90.046639,,0,1:SPAWELEF,3
0:FOUGEONN,4TH ST@GEORGIA AVE,st 804 (no 15),35.128977,-90.05046,,0,1:1304,3
0:LAUWALNN,LAUDERDALE ST@WALDORF AVE,st 4802,35.105221,-90.043929,,0,1:LAUWALNN,3
0:WHTC,WILLIAM HUDSON TRANSIT CENTER,st 7259 (no 12),35.156554,-90.047698,,0,1:2,3
0:MCLMISWN,MCLEMORE AVENUE at MISSISSIPPI BOULEVARD,st 4276 (no 1237),35.115702,-90.037099,,0,1:MCLMISWN,3
0:MAIMADIB,MAIN@MADISON TRLLY,st 6502 (no 947),35.145179,-90.052815,,0,1:MAINMADI,3
0:MAICOUOB,MAIN@MADISON TRLLY,st 6510 (no 947),35.146627,-90.052261,,0,1:MAINMADI,3
0:WEAMITNN,WEAVER ROAD at WEST MITCHELL ROAD,st 5866,35.056021,-90.095309,,0,1:WEAMITNN,3
0:HOLMALEN,HOLMES ROAD at MALONE ROAD,st 2524,35.005961,-89.921302,,0,1:HOLMALEN,3
0:GEPMAIEN,GE PATTERSON AVENUE at MAIN STREET,st 468,35.132749,-90.059424,,0,1:GEPMAIEN,3
0:HORRAISM,HORN LAKE ROAD at RAINES ROAD,st 4902,35.036737,-90.069794,,0,1:HORRAISM,3
0:HORRAISN,HORN LAKE ROAD at RAINES ROAD,st 4903,35.035664,-90.070059,,0,1:HORRAISN,3
0:FRAOVEEF,FRAYSER PLAZA,st 1382 (no 852),35.217021,-89.992321,,0,1:4218,3
0:HORRAINN,HORN LAKE ROAD at RAINES ROAD,st 4943,35.035003,-90.070136,,0,1:HORRAINN,3
0:2,WILLIAM HUDSON TRANSIT CENTER,st 469 (no 12),35.156554,-90.047698,,0,1:2,3
0:3206,AIRWAYS TRANSIT CENTER,st 6434 (no 449),35.061781,-89.992831,,0,1:3206,3
0:3,AMERICAN WAY TRANSIT CENTER,st 80 (no 33),35.075982,-89.932671,,0,1:3,3
0:RIVBIRNF,RIVERDALE ROAD at BIRCH RUN LANE,st 7221,35.041455,-89.83103,,0,1:RIVBIRNF,3
0:LAMNOEN,LAMAR AVENUE at SNOWDEN CIRCLE,st 5733,35.127242,-90.018637,,0,1:LAMNOEN,3
0:NHOSHANN,NORTH HOLLYWOOD STREET at SHA AVENUE,st 3621,35.168663,-89.975529,,0,1:NHOSHANN,3
0:NHOELDNN,NORTH HOLLYWOOD ST at ELDRIDGE AVENUE,st 3622,35.170209,-89.975483,,0,1:NHOELDNN,3
0:NHOGOLNN,NORTH HOLLYWOOD ST at GOLDENORTH AVENUE,st 3623,35.172899,-89.975391,,0,1:NHOGOLNN,3
0:NHOHUBNN,NORTH HOLLYWOOD STREET at HUBBARD AVENUE,st 3624,35.173587,-89.975391,,0,1:NHOHUBNN,3
0:SPRCHESF,SPRINGDALE STREET at CHELSEA AVENUE,st 4531,35.174335,-89.983672,,0,1:SPRCHESF,3
0:THOSHOSF,EXCEL CENTER,st 7252,35.078606,-89.902586,,0,1:THOSHOSF,3
0:CRUCAMWN,CRUMP BOULEVARD at CAMILLA STREET,st 5712,35.131758,-90.027066,,0,1:CRUCAMWN,3
0:CENEAREM,CENTRAL AVENUE at EARLY MAXWELL BLVD,st 3347,35.125791,-89.982465,,0,1:CENEAREM,3
0:HOLSIMWN,HOLMES ROAD at SIMS ROAD,st 7232,35.005929,-89.870307,,0,1:HOLSIMWN,3
0:HOLHICWF,HOLMES ROAD at HICKORY HILL ROAD,st 7151,35.005892,-89.86475,,0,1:HOLHICWF,3
0:FLOMCLSN,FLORIDA STREET at MCLEMORE AVENUE,st 374,35.116403,-90.062336,,0,1:FLOMCLSN,3
0:FLOMCLSF,FLORIDA STREET at MCLEMORE AVENUE,st 4868,35.115706,-90.062359,,0,1:FLOMCLSF,3
0:FLOFARSN,FLORIDA STREET at FARROW ROAD,st 4869,35.114116,-90.06237,,0,1:FLOFARSN,3
0:FLOWTRSN,FLORIDA STREET at EAST TRIGG AVENUE,st 4870,35.112936,-90.06237,,0,1:FLOWTRSN,3
0:FLOEOLSN,FLORIDA STREET at EAST OLIVE AVENUE,st 4871,35.110398,-90.062425,,0,1:FLOEOLSN,3
0:SPAKANWM,SOUTH PARKWAY WEST at KANSAS STREET,st 2219,35.107851,-90.06497,,0,1:SPAKANWM,3
0:SPALOUWF,SOUTH PARKWAY EAST at LOUISIANA STREET,st 2222,35.107949,-90.069395,,0,1:SPALOUWF,3
0:SWISPASF,SWIFT STREET at SOUTH PARKWAY WEST,st 2224,35.107484,-90.07309,,0,1:SWISPASF,3
0:SWIBURSN,SWIFT STREET at BURDOCK AVENUE,st 2225,35.10618,-90.073146,,0,1:SWIBURSN,3
0:SWIWALSN,SWIFT STREET at WALDORF AVENUE,st 2226,35.105357,-90.073168,,0,1:SWIWALSN,3
0:RAIOUTWN,EAST RAINES ROAD at OUTLAND ROAD,st 1830,35.035355,-89.900592,,0,1:RAIOUTWN,3
0:HIGWINNM,HIGHLAND STREET at WINDOVER ROAD,st 3284,35.125695,-89.945208,,0,1:HIGWINNM,3
0:HIGPOPNN,HIGHLAND STREET at POPLAR AVENUE,st 3285,35.127393,-89.945167,,0,1:HIGPOPNN,3
0:HIGWA1NN,HIGHLAND STREET at WALNUT GROVE ROAD,st 3288,35.131861,-89.944987,,0,1:HIGWA1NN,3
0:LEVOAKEN,LEVI ROAD at OAKSHIRE STREET,st 5838 (no 1186),35.042321,-90.091945,,0,1:1205,3
0:DOUPARSN,DOUBLE TREE STREET at PARKROSE ROAD,st 6398 (no 81),35.025435,-90.103444,,0,1:3900,3
0:HIGNORNN,HIGHLAND STREET at NORTHWOOD DRIVE,st 3173,35.134095,-89.94495,,0,1:HIGNORNN,3
0:HIGOAKNN,HIGHLAND STREET at OAKLEY AVENUE,st 3174,35.136409,-89.94488,,0,1:HIGOAKNN,3
0:HIGWAYNN,HIGHLAND STREET at WAYNOKA AVENUE,st 3175,35.137741,-89.944834,,0,1:HIGWAYNN,3
0:SHEBENWF,SHELBY DRIVE at BENOIT DRIVE,st 2411,35.020502,-89.836578,,0,1:SHEBENWF,3
0:SPAKENEN,SOUTH PARKWAY WEST at KENTUCKY STREET,st 2275,35.107663,-90.063731,,0,1:SPAKENEN,3
0:FLOEOLNN,FLORIDA STREET at EAST OLIVE AVENUE,st 4982,35.110049,-90.062237,,0,1:FLOEOLNN,3
0:SHETUGWM,SHELBY DRIVE at TUGGLE ROAD,st 2421,35.020572,-89.888789,,0,1:SHETUGWM,3
0:LAMPENEF,LAMAR AVENUE at PENDLETON STREET,st 5757,35.094161,-89.969504,,0,1:LAMPENEF,3
0:LAMFILEF,LAMAR AVENUE at FILMORE AVENUE,st 5758,35.092167,-89.967704,,0,1:LAMFILEF,3
0:LAMSHUEN,LAMAR AVENUE at SHULTZ AVENUE,st 5759,35.090137,-89.965992,,0,1:LAMSHUEN,3
0:LAMSOUEM,LAMAR AVENUE at SOUTHWALL STREET,st 5760,35.08901,-89.965087,,0,1:LAMSOUEM,3
0:ALCMANWN,ALCY ROAD at MANCHESTER ROAD,st 7116,35.077823,-90.005842,,0,1:ALCMANWN,3
0:ALCPERWM,ALCY ROAD at PERRY ROAD,st 7117,35.077968,-90.010398,,0,1:ALCPERWM,3
0:ALCSPAWN,ALCY ROAD at SPARKS STREET,st 6123,35.078032,-90.012422,,0,1:ALCSPAWN,3
0:SPAGAUNN,SPARKS STREET at GAUSCO ROAD,st 7113,35.080302,-90.012342,,0,1:SPAGAUNN,3
0:BALSILWN,BALL ROAD at SILVER STREET,st 7114,35.082125,-90.013126,,0,1:BALSILWN,3
0:GETCRONF,GETWELL ROAD at CROWFARD DRIVE,st 2577,35.031103,-89.936939,,0,1:GETCRONF,3
0:RAIGETEF,RAINES ROAD at GETWELL ROAD,st 2622,35.036687,-89.93536,,0,1:RAIGETEF,3
0:KANDISSN,KANSAS STREET at DISON AVENUE,st 2253,35.10113,-90.065159,,0,1:KANDISSN,3
0:KANKIRSN,KANSAS STREET at KIRK AVENUE,st 2254,35.099727,-90.065314,,0,1:KANKIRSN,3
0:KANVAASF,KANSAS STREET at VAAL AVENUE,st 2255,35.097922,-90.065502,,0,1:KANVAASF,3
0:KANPRESN,KANSAS STREET at PRETORIA AVENUE,st 2256,35.09651,-90.066475,,0,1:KANPRESN,3
0:GETCRONN,GETWELL ROAD at CROWFARD DRIVE,st 2576,35.029404,-89.936909,,0,1:GETCRONN,3
0:LAMSNOEF,LAMAR AVENUE at SNOWDEN CIRCLE,st 5734,35.125999,-90.016436,,0,1:LAMSNOEF,3
0:HOLMALEM,HOLMES ROAD at MALONE ROAD,st 2523,35.006063,-89.925106,,0,1:HOLMALEM,3
0:JACMACSF,JACKSON AVENUE at MACON ROAD,st 3735,35.164325,-89.95373,,0,1:JACMACSF,3
0:JACHUDSN,JACKSON AVENUE at HUDSON STREET,st 3736,35.162936,-89.955906,,0,1:JACHUDSN,3
0:JACPOPSN,JACKSON AVENUE at POPE STREET,st 3737,35.161681,-89.958524,,0,1:JACPOPSN,3
0:PARSHOWN,PARK AVENUE at SHOTWELL STREET,st 2159,35.107627,-89.931674,,0,1:PARSHOWN,3
0:NATFAINF,NATIONAL STREET at FAIROAKS AVENUE,st 6973,35.168759,-89.944008,,0,1:NATFAINF,3
0:NATHAZNM,NATIONAL STREET at HAZELWOOD AVENUE,st 6974,35.170804,-89.942577,,0,1:NATHAZNM,3
0:NATBAYNF,NATIONAL STREET at BAYLISS AVENUE,st 7009,35.172028,-89.942043,,0,1:NATBAYNF,3
0:ORCNATNM,ORCHI ROAD at NATIONAL STREET,st 6978,35.1781,-89.93808,,0,1:ORCNATNM,3
0:NONDIVEF,NONCONNAH BOULEVARD at DIVIDEND DRIVE,st 7102,35.071531,-90.005515,,0,1:NONDIVEF,3
0:NONPA2EF,NONCONNAH BOULEVARD at PARAGON PLACE,st 7103,35.071858,-89.999699,,0,1:NONPA2EF,3
0:NONCOREN,NONCONNAH BOULEVARD at CORPORATE AVENUE,st 7104,35.073355,-89.992676,,0,1:NONCOREN,3
0:NONDE1SM,NONCONNAH BOULEVARD at DEMOCRAT ROAD,st 2768,35.069761,-89.990213,,0,1:NONDE1SM,3
0:RALROCEF,RALEIGH LAGRANGE ROAD at ROCK RIDGE ROAD,st 7066,35.185141,-89.883993,,0,1:RALROCEF,3
0:FLOFERSN,FLORIDA STREET at EAST FERNWOOD AVENUE,st 4883,35.09272,-90.062947,,0,1:FLOFERSN,3
0:FLONORSN,FLORIDA STREET at NORWOOD AVENUE,st 4884,35.091782,-90.062969,,0,1:FLONORSN,3
0:MALFLOEF,MALLORY AVENUE at FLORIDA STREET,st 5003,35.086536,-90.06214,,0,1:MALFLOEF,3
0:MALSHEEF,MALLORY AVENUE at SHELBY STREET,st 5004,35.086509,-90.060315,,0,1:MALSHEEF,3
0:SHEVESWN,SHELBY DRIVE at VESCOVI LANE,st 2413,35.020502,-89.843781,,0,1:SHEVESWN,3
0:CHEHOLEF,CHELSEA AVENUE at HOLMES STREET,st 4589,35.173197,-89.949139,,0,1:CHEHOLEF,3
0:CHEPANEF,CHELSEA AVENUE at PANAMA STREET,st 4590,35.173462,-89.946448,,0,1:CHEPANEF,3
0:HIGSPOSM,HIGHLAND STREET at SPOTTSWOOD AVENUE,st 3229,35.114481,-89.945868,,0,1:HIGSPOSM,3
0:HIGSPOSF,HIGHLAND STREET at SPOTSWOOD AVENUE,st 7094,35.112898,-89.945947,,0,1:HIGSPOSF,3
0:FOULACSN,4TH STREET at LACLEDE AVENUE,st 4834,35.118833,-90.051171,,0,1:FOULACSN,3
0:PARHIGEF,PARK AVENUE at HIGHLAND STREET,st 2329,35.107812,-89.94517,,0,1:PARHIGEF,3
0:PARPAREN,PARK AVENUE at PARK HAVEN LANE,st 2330,35.107746,-89.942626,,0,1:PARPAREN,3
0:PARROBEN,PARK AVENUE at ROBIN HOOD LANE,st 2331,35.1077,-89.940712,,0,1:PARROBEN,3
0:PARECHEN,PARK AVENUE at ECHLES STREET,st 2332,35.107635,-89.938677,,0,1:PARECHEN,3
0:PARGOOEN,PARK AVENUE at GOODMAN STREET,st 2333,35.107569,-89.9359,,0,1:PARGOOEN,3
0:PARKELEF,PARK AVENUE at KELLEY ROAD,st 2334,35.107522,-89.933676,,0,1:PARKELEF,3
0:PARSHOEN,PARK AVENUE at SHOTWELL STREET,st 2335,35.107475,-89.932061,,0,1:PARSHOEN,3
0:GETRHOSF,GETWELL ROAD at RHODES AVENUE,st 378,35.09902,-89.930992,,0,1:GETRHOSF,3
0:GETKIMSF,GETWELL ROAD at KIMBALL AVENUE,st 373,35.092487,-89.931159,,0,1:GETKIMSF,3
0:GETDUNSF,GETWELL ROAD at DUNN AVENUE,st 206,35.089716,-89.931208,,0,1:GETDUNSF,3
0:GETELLSM,GETWELL ROAD at ELLISTON ROAD,st 2808,35.085489,-89.931304,,0,1:GETELLSM,3
0:GETMALSM,GETWELL ROAD at MALLORY AVENUE,st 2809,35.083988,-89.931329,,0,1:GETMALSM,3
0:GETMALNF,GETWELL ROAD at MALLORY AVENUE,st 2810,35.083836,-89.93113,,0,1:GETMALNF,3
0:GETELLNN,GETWELL ROAD at ELLISTON ROAD,st 2811,35.084819,-89.931118,,0,1:GETELLNN,3
0:JACBAYNN,JACKSON AVENUE at BAYLISS AVENUE,st 3194 (no 975),35.172163,-89.942796,,0,1:500,3
0:JACHOLEF,JACKSON AVENUE at HOLLYWOOD STREET,st 295 (no 109),35.157815,-89.976107,,0,1:103,3
0:RIVBORSN,RIVERDALE ROAD at BORDEAUX LANE,st 7239,35.02442,-89.831459,,0,1:RIVBORSN,3
0:RIVROCSN,RIVERDALE ROAD at ROCKINGHAM ROAD,st 7238,35.027754,-89.831493,,0,1:RIVROCSN,3
0:RIVFOXSN,RIVERDALE ROAD at FOX HEDGE,st 7237,35.031043,-89.831505,,0,1:RIVFOXSN,3
0:RIVRAISF,RIVERDALE ROAD at RAINES ROAD,st 7149,35.034699,-89.831516,,0,1:RIVRAISF,3
0:RIVCHESF,RIVERDALE ROAD at CHESAPEAKE WAY,st 7236,35.038426,-89.831515,,0,1:RIVCHESF,3
0:CRUAMBNN,CRUMPLER ROAD at AMBERWOOD DRIVE,st 6952,35.012441,-89.848545,,0,1:CRUAMBNN,3
0:CRUPINNF,CRUMPLER ROAD at PINE MEADOW LANE,st 2533,35.014552,-89.848628,,0,1:CRUPINNF,3
0:CRUSHENN,CRUMPLER ROAD at SHELBY DRIVE,st 2534,35.020127,-89.848562,,0,1:CRUSHENN,3
0:SHEAMAWF,SHELBY DRIVE at AMANDA OAKS CIRCLE WEST,st 2414,35.020502,-89.853069,,0,1:SHEAMAWF,3
0:SHECRUWM,SHELBY DRIVE at CRUMP BOULEVARD,st 2415,35.020487,-89.855574,,0,1:SHECRUWM,3
0:CHEHOLWM,CHELSEA AVENUE at HOLMES STREET,st 4517,35.173358,-89.949083,,0,1:CHEHOLWM,3
0:CHEELLWN,CHELSEA AVENUE at ELLINGTON STREET,st 4518,35.173386,-89.950766,,0,1:CHEELLWN,3
0:CHEASHWN,CHELSEA AVENUE at ASH STREET,st 4519,35.17347,-89.9536,,0,1:CHEASHWN,3
0:CHEBROWN,CHELSEA AVENUE at BROOKINS STREET,st 4520,35.173525,-89.955516,,0,1:CHEBROWN,3
0:CHESUNWF,CHELSEA AVENUE at SUNSET STREET,st 4522,35.173994,-89.959745,,0,1:CHESUNWF,3
0:CHELAKWN,CHELSEA AVENUE at LAKE GROVE STREET,st 4523,35.17412,-89.961228,,0,1:CHELAKWN,3
0:CHECARWN,CHELSEA AVENUE at CARPENTER STREET,st 4524,35.174301,-89.963287,,0,1:CHECARWN,3
0:CHECARWF,CHELSEA AVENUE at CARPENTER STREET,st 4525,35.174365,-89.965491,,0,1:CHECARWF,3
0:CHEFAIWM,CHELSEA AVENUE at FAIRFAX STREET,st 4526,35.174466,-89.967849,,0,1:CHEFAIWM,3
0:CHEFAIWN,CHELSEA AVENUE at FAIRFAX STREET,st 4527,35.174548,-89.970307,,0,1:CHEFAIWN,3
0:CHESTAWN,CHELSEA AVENUE at STANDRIDGE STREET,st 4528,35.174603,-89.971824,,0,1:CHESTAWN,3
0:CHEMERWF,CHELSEA AVENUE at MERTON STREET,st 4529,35.174649,-89.973252,,0,1:CHEMERWF,3
0:FROPOPSN,FRONT STREET at POPLAR AVENUE,st 603,35.150621,-90.052183,,0,1:FROPOPSN,3
0:FROADASM,FRONT STREET at ADAMS AVENUE,st 604,35.148503,-90.052925,,0,1:FROADASM,3
0:RIVCOUSN,RIVERSIDE DRIVE at COURT AVENUE,st 6709,35.146547,-90.05515,,0,1:RIVCOUSN,3
0:JACBINEN,JACKSON AVENUE at BINGHAM STREET,st 3919,35.157865,-89.971724,,0,1:JACBINEN,3
0:SYCSYCSM,SYCAMORE VIEW RD at SYCAMORE RIDGE ROAD,st 7070,35.17773,-89.87172,,0,1:SYCSYCSM,3
0:SYCPLESF,SYCAMORE VIEW ROAD at PLEASANT VIEW ROAD,st 7071,35.172927,-89.869319,,0,1:SYCPLESF,3
0:SYCSUMSF,SYCAMORE VIEW ROAD at SUMMER AVENUE,st 4132,35.171083,-89.867475,,0,1:SYCSUMSF,3
0:SYCSHESM,SYCAMORE VIEW ROAD at SHELBY OAKS DRIVE,st 4133,35.170456,-89.866823,,0,1:SYCSHESM,3
0:RESSY1EM,SYCAMORE VIEW ROAD at RESOURCES DRIVE,st 4038,35.158461,-89.860301,,0,1:RESSY1EM,3
0:SYCMACNM,SYCAMORE VIEW ROAD at MACON ROAD,st 4039,35.161699,-89.859353,,0,1:SYCMACNM,3
0:SYCSHENN,SYCAMORE VIEW ROAD at SHELBY OAKS DRIVE,st 4040,35.168084,-89.864239,,0,1:SYCSHENN,3
0:DANPLUSN,DANNY THOMAS BOULEVARD at PLUM AVENUE,st 676,35.180841,-90.035699,,0,1:DANPLUSN,3
0:DANCORSF,DANNY THOMAS BOULEVARD at CORRINE AVENUE,st 677,35.17934,-90.035766,,0,1:DANCORSF,3
0:STELEWEF,ST ELMO AVENUE at LEWEIR STREET,st 1465,35.231233,-89.997902,,0,1:STELEWEF,3
0:STEDENEN,ST ELMO AVENUE at DENVER STREET,st 1466,35.231204,-89.995575,,0,1:STEDENEN,3
0:VOLSPEWN,VOLLINTINE AVENUE at SPEED STREET,st 3850,35.16497,-90.012323,,0,1:VOLSPEWN,3
0:VOLCLAWN,VOLLINTINE AVENUE at CLAYBROOK STREET,st 3851,35.165131,-90.013962,,0,1:VOLCLAWN,3
0:POPESTWN,POPLAR AVENUE at ESTATE PLACE,st 2019,35.107409,-89.883507,,0,1:POPESTWN,3
0:FIEOUTWN,FIELDS ROAD at OUTLET ROAD,st 5588,35.049691,-90.10529,,0,1:FIEOUTWN,3
0:FIEOSCWN,FIELDS ROAD at OSCEOLA ROAD,st 5589,35.04969,-90.107191,,0,1:FIEOSCWN,3
0:FIECOOWN,FIELDS ROAD at COOK ROAD,st 5590,35.049698,-90.109568,,0,1:FIECOOWN,3
0:WILWATEM,NEW WILLOW ROAD at WATSON STREET,st 2812,35.086639,-89.930082,,0,1:WILWATEM,3
0:LATMCLSF,LATHAM STREET at MCLEMORE AVENUE,st 4838,35.115629,-90.052622,,0,1:LATMCLSF,3
0:LATLUCSN,LATHAM STREET at LUCY AVENUE,st 4839,35.11448,-90.05255,,0,1:LATLUCSN,3
0:ALCJUDEN,ALCY ROAD at JUDSON STREET,st 4692,35.077607,-90.004438,,0,1:ALCJUDEN,3
0:ALCSHEEF,ALCY ROAD at SHERRIE STREET,st 4693,35.077526,-90.002027,,0,1:ALCSHEEF,3
0:ALCJOHEN,ALCY ROAD at JOHANNA DRIVE,st 4694,35.077766,-90.000279,,0,1:ALCJOHEN,3
0:ALCKE1EM,ALCY ROAD at KETCHUM ROAD,st 4698,35.078316,-89.993389,,0,1:ALCKE1EM,3
0:ALCKE2EM,ALCY ROAD at KETCHUM ROAD,st 4699,35.07899,-89.985714,,0,1:ALCKE2EM,3
0:AUCFIFEF,AUCTION AVENUE at 5TH STREET,st 809,35.155802,-90.041798,,0,1:AUCFIFEF,3
0:AUCDANEM,AUCTION AVENUE at DANNY THOMAS BOULEVARD,st 810,35.155757,-90.039473,,0,1:AUCDANEM,3
0:AUCDANEN,AUCTION AVENUE at DANNY THOMAS BOULEVARD,st 811,35.155971,-90.037735,,0,1:AUCDANEN,3
0:PERDEANN,PERKINS ROAD at EAST DEARING ROAD,st 2820,35.087192,-89.907014,,0,1:PERDEANN,3
0:PERDEANF,PERKINS ROAD at EAST DEARING ROAD,st 2821,35.087844,-89.907001,,0,1:PERDEANF,3
0:PERBOYNN,PERKINS ROAD at BOYCE ROAD,st 2822,35.089292,-89.906943,,0,1:PERBOYNN,3
0:STRMACNN,STRATFORD ROAD at MACON ROAD,st 1118,35.161813,-89.905732,,0,1:STRMACNN,3
0:CENBLYWM,CENTRAL AVENUE at BLYTHE STREET,st 3529,35.126072,-89.989026,,0,1:CENBLYWM,3
0:AIRPRESF,AIR PARK STREET at PREMIER AVENUE,st 7158,35.043877,-89.931357,,0,1:AIRPRESF,3
0:AIRPRESM,AIR PARK STREET at PREMIER AVENUE,st 7157,35.046728,-89.931374,,0,1:AIRPRESM,3
0:HOLCHENF,HOLLYWOOD STREET at CHELSEA AVENUE,st 1530,35.175115,-89.975367,,0,1:HOLCHENF,3
0:KIMHOPWN,KIMBALL AVENUE at HOPE STREET,st 4160,35.093474,-89.947934,,0,1:KIMHOPWN,3
0:KIMHOPEN,KIMBALL AVENUE at HOPE STREET,st 4182,35.093453,-89.9486,,0,1:KIMHOPEN,3
0:CENROLEM,CENTRAL AVENUE at ROLAND STREET,st 7029,35.126308,-90.009442,,0,1:CENROLEM,3
0:CENBELEF,CENTRAL AVENUE at BELVEDERE BOULEVARD,st 7030,35.126162,-90.004064,,0,1:CENBELEF,3
0:CENMCLEF,CENTRAL AVENUE at MCLEAN BOULEVARD,st 7031,35.126152,-90.001032,,0,1:CENMCLEF,3
0:CENMETEN,CENTRAL AVENUE at METCALF PLACE,st 7032,35.126078,-89.997458,,0,1:CENMETEN,3
0:CENLINEN,CENTRAL AVENUE at LINDSEY STREET,st 7033,35.126032,-89.994869,,0,1:CENLINEN,3
0:CENCOOEF,CENTRAL AVENUE at COOPER STREET,st 3489,35.125939,-89.990266,,0,1:CENCOOEF,3
0:CENMEDEF,CENTRAL AVENUE at MEDA STREET,st 3490,35.125893,-89.988562,,0,1:CENMEDEF,3
0:CENNEWEF,CENTRAL AVENUE at NEW YORK STREET,st 3491,35.125865,-89.986968,,0,1:CENNEWEF,3
0:CENLANEF,CENTRAL AVENUE at LANDIS STREET,st 3492,35.125882,-89.985408,,0,1:CENLANEF,3
0:CENEPAEF,CENTRAL AVENUE at EAST PARKWAY,st 3346,35.125836,-89.983372,,0,1:CENEPAEF,3
0:CENEAREN,CENTRAL AVENUE at EARLY MAXWELL BLVD,st 3348,35.125745,-89.980705,,0,1:CENEAREN,3
0:CENEDWEN,CENTRAL AVENUE at EDWIN CIRCLE,st 3349,35.125743,-89.978725,,0,1:CENEDWEN,3
0:CENHOLEM,CENTRAL AVENUE at HOLLYWOOD STREET,st 3350,35.125661,-89.976965,,0,1:CENHOLEM,3
0:CENHOLEN,CENTRAL AVENUE at HOLLYWOOD STREET,st 3351,35.125634,-89.976113,,0,1:CENHOLEN,3
0:CENFLIEM,CENTRAL AVENUE at FLICKER STREET,st 3493,35.125722,-89.974708,,0,1:CENFLIEM,3
0:KIMCATWN,KIMBALL AVENUE at CATHERINE STREET,st 4164,35.094909,-89.95623,,0,1:KIMCATWN,3
0:JACGR1SM,JACKSON AVENUE at GRAGG AVENUE,st 3723,35.182858,-89.933122,,0,1:JACGR1SM,3
0:OUTNEWSN,OUTLAND ROAD at NEWGATE DRIVE,st 7193,35.048155,-89.901835,,0,1:OUTNEWSN,3
0:OUTWINSF,OUTLAND ROAD at WINCHESTER ROAD,st 7192,35.050667,-89.901851,,0,1:OUTWINSF,3
0:STAKIRWM,STAGE ROAD at KIRBY WHITTEN ROAD,st 977,35.20516,-89.839903,,0,1:STAKIRWM,3
0:WILSGOWF,WILLOW ROAD at S GOODLETT STREET,st 2804,35.086272,-89.921261,,0,1:WILSGOWF,3
0:WALHIGEF,WALNUT GROVE ROAD at HIGHLAND STREET,st 3064 (no 1123),35.131888,-89.944954,,0,1:3064,3
0:CENHOLEF,CENTRAL AVENUE at HOLLYWOOD STREET,st 34 (no 4),35.125678,-89.975804,,0,1:5000,3
0:LAMBELEF,LAMAR AVENUE at BELLEVUE BOULEVARD,st 5732 (no 1122),35.128288,-90.020528,,0,1:5732,3
0:AIRDEMNN,AIRWAYS BOULEVARD at DEMOCRAT ROAD,st 5319,35.067757,-89.987938,,0,1:AIRDEMNN,3
0:ALCHILWN,ALCY ROAD at HILLVIEW DRIVE,st 6813,35.078378,-89.992593,,0,1:ALCHILWN,3
0:ALCSAMWN,ALCY ROAD at SAMUELS STREET,st 6814,35.078523,-89.996176,,0,1:ALCSAMWN,3
0:ALCTHAWN,ALCY ROAD at THAMES ROAD,st 6119,35.078569,-89.997448,,0,1:ALCTHAWN,3
0:ALCJOHWM,ALCY ROAD at JOHANNA DRIVE,st 6120,35.078087,-89.999958,,0,1:ALCJOHWM,3
0:ALCVERWM,ALCY ROAD at VERDUN STREET,st 6815,35.077811,-90.000821,,0,1:ALCVERWM,3
0:RALROCWF,RALEIGH LAGRANGE ROAD at ROCK RIDGE ROAD,st 7078,35.18549,-89.884435,,0,1:RALROCWF,3
0:WALNORWN,WALNUT GROVE ROAD at NORWAL ROAD,st 2972,35.131096,-89.904353,,0,1:WALNORWN,3
0:WALGROWN,WALNUT GROVE ROAD at GROVE PARK ROAD,st 2974,35.131247,-89.910605,,0,1:WALGROWN,3
0:NEWGOOEN,NEW WILLOW ROAD at GOODLETT STREET,st 2814,35.085968,-89.920852,,0,1:NEWGOOEN,3
0:GETSTUNN,GETWELL ROAD at STUART ROAD,st 6155,35.104748,-89.930628,,0,1:GETSTUNN,3
0:BROAI2WF,BROOKS ROAD at AIRWAYS BOULEVARD,st 5242,35.060646,-89.99302,,0,1:BROAI2WF,3
0:JONWASNM,JONETTA STREET at WASHBURN DRIVE,st 4922,35.007787,-90.074876,,0,1:JONWASNM,3
0:9002,HOLMES ROAD at HUDGINS ROAD,no 142,35.006488,-89.999416,,0,1:9002,3
0:SHECRUEM,SHELBY DRIVE at CRUMP BOULEVARD,st 2481,35.020232,-89.861325,,0,1:SHECRUEM,3
0:SHESANEM,SHELBY DRIVE at SANDY PARK DRIVE,st 2482,35.020308,-89.85418,,0,1:SHESANEM,3
0:SHEVESEF,SHELBY DRIVE at VESCOVI LANE,st 2484,35.020266,-89.843747,,0,1:SHEVESEF,3
0:RIVSHENF,RIVERDALE ROAD at SHELBY DRIVE,st 3871,35.020827,-89.831083,,0,1:RIVSHENF,3
0:RIVBORNN,RIVERDALE ROAD at BORDEAUX LANE,st 3881,35.024053,-89.831095,,0,1:RIVBORNN,3
0:RIVROCNN,RIVERDALE ROAD at ROCKINGHAM ROAD,st 6435,35.027593,-89.831129,,0,1:RIVROCNN,3
0:RAIFRIWN,RAINES ROAD at FRIENDLY WAY,st 2539,35.035073,-89.849486,,0,1:RAIFRIWN,3
0:RAIPARWN,RAINES ROAD at PARK FOREST DRIVE,st 2540,35.035097,-89.852403,,0,1:RAIPARWN,3
0:ROBELLSN,ROBIN HOOD LANE at ELLISTON ROAD,st 4190,35.086911,-89.939552,,0,1:ROBELLSN,3
0:GOOKNINF,KNIGHT ARNOLD ROAD at GOODLETT STREET,st 2714 (no 859),35.065082,-89.921335,,0,1:2737,3
0:FLODESNN,FLORIDA STREET at DESOTO AVENUE,st 4480,35.122043,-90.061926,,0,1:FLODESNN,3
0:FLOCRUNF,FLORIDA STREET at CRUMP BOULEVARD,st 4481,35.124938,-90.061815,,0,1:FLOCRUNF,3
0:FLOVIRNN,FLORIDA STREET at VIRGINIA AVENUE,st 4482,35.125653,-90.061782,,0,1:FLOVIRNN,3
0:HOLCITEM,HOLMES ROAD at CITATION DRIVE,st 2525,35.005962,-89.909826,,0,1:HOLCITEM,3
0:HOLPLEEN,HOLMES ROAD at PLEASANT HILL ROAD,st 2526,35.005907,-89.901805,,0,1:HOLPLEEN,3
0:HOLHICEF,HOLMES ROAD at HICKORY HILL ROAD,st 2530,35.005703,-89.863276,,0,1:HOLHICEF,3
0:HOLDISEN,HOLMES ROAD at DISTRIPLEX FARM DRIVE,st 2531,35.005698,-89.857993,,0,1:HOLDISEN,3
0:HOLCRUEM,HOLMES ROAD at CRUMPLER ROAD,st 6951,35.005724,-89.850807,,0,1:HOLCRUEM,3
0:WEAFIENF,WEAVER ROAD at FIELDS ROAD,st 5864,35.049809,-90.096523,,0,1:WEAFIENF,3
0:BROCOUWN,BROOKS ROAD at COUGHLIN DRIVE,st 5249,35.061329,-90.01553,,0,1:BROCOUWN,3
0:BROLUCWM,BROOKS ROAD at LUCIBILL ROAD,st 5250,35.061664,-90.026475,,0,1:BROLUCWM,3
0:RIVCHENN,RIVERDALE ROAD at CHESAPEAKE WAY,st 7220,35.038434,-89.831161,,0,1:RIVCHENN,3
0:RIVRAINF,RIVERDALE ROAD at RAINES ROAD,st 7219,35.035252,-89.83116,,0,1:RIVRAINF,3
0:SHERIVEM,SHELBY DRIVE at RIVERDALE ROAD,st 2485,35.020266,-89.833984,,0,1:SHERIVEM,3
0:POPALIEN,POPLAR AVENUE at ALICIA DRIVE,st 1908 (no 1152),35.139006,-89.979118,,0,1:5510,3
0:MALWELWF,MALLORY AVENUE at WELLINGTON STREET,st 7063,35.086453,-90.047497,,0,1:MALWELWF,3
0:MALLATWF,MALLORY AVENUE at LATHAM STREET,st 7064,35.086544,-90.052463,,0,1:MALLATWF,3
0:MALSTHWF,MALLORY AVENUE at SOUTH 3RD STREET,st 5000,35.086625,-90.057495,,0,1:MALSTHWF,3
0:MALSHEWN,MALLORY AVENUE at SHELBY STREET,st 5001,35.08667,-90.06047,,0,1:MALSHEWN,3
0:FLOGAGNN,FLORIDA STREET at GAGE AVENUE,st 4962,35.087421,-90.062892,,0,1:FLOGAGNN,3
0:FLODAVNN,FLORIDA STREET at WEST DAVANT AVENUE,st 4963,35.088538,-90.06287,,0,1:FLODAVNN,3
0:FLOMCKNN,FLORIDA STREET at MCKELLAR AVENUE,st 4964,35.089539,-90.062848,,0,1:FLOMCKNN,3
0:FLOFRANN,FLORIDA STREET at FRANK AVENUE,st 4965,35.090522,-90.062814,,0,1:FLOFRANN,3
0:FLONORNN,FLORIDA STREET at NORWOOD AVENUE,st 4966,35.091478,-90.062781,,0,1:FLONORNN,3
0:ELLECHEF,ELLISTON ROAD at ECHLES STREET,st 4194,35.086762,-89.934631,,0,1:ELLECHEF,3
0:ELLGETEN,ELLISTON ROAD at GETWELL ROAD,st 4195,35.086706,-89.932032,,0,1:ELLGETEN,3
0:KIRBIRNN,KIRBY PARKWAY at BIRCH RUN LANE,st 7216,35.040394,-89.846077,,0,1:KIRBIRNN,3
0:CENROZWN,CENTRAL AVENUE at ROZELLE STREET,st 7037,35.126458,-90.006189,,0,1:CENROZWN,3
0:CENWILWF,CENTRAL AVENUE at WILLETT STREET,st 7038,35.126586,-90.010703,,0,1:CENWILWF,3
0:CHEBRIWN,CHELSEA AVENUE at BRITTON STREET,st 1594,35.173967,-89.987673,,0,1:CHEBRIWN,3
0:CHEMAYWN,CHELSEA AVENUE at MAY STREET,st 1595,35.173614,-89.989988,,0,1:CHEMAYWN,3
0:CHEUNIWF,CHELSEA AVENUE at UNIVERSITY STREET,st 1596,35.173272,-89.992264,,0,1:CHEUNIWF,3
0:CHEMCLWN,CHELSEA AVENUE at MCLEAN BOULEVARD,st 1597,35.172856,-89.995001,,0,1:CHEMCLWN,3
0:CHEMCLWF,CHELSEA AVENUE at MCLEAN BOULEVARD,st 1598,35.172674,-89.996496,,0,1:CHEMCLWF,3
0:CONTRONB,CONVENTION CENTER at MAIN STREET,st 6176,35.151729,-90.050146,,0,1:CONTRONB,3
0:OVETRONN,OVERTON AVENUE at MAIN STREET,st 695,35.155125,-90.048839,,0,1:OVETRONN,3
0:PAUTROWB,MADISON AVENUE at PAULINE STREET,st 6503,35.140061,-90.028401,,0,1:PAUTROWB,3
0:ORLTROWB,MADISON AVENUE at ORLEANS STREET,st 767,35.141127,-90.037465,,0,1:ORLTROWB,3
0:NATMAYSN,NATIONAL STREET at MAYFAIR AVENUE,st 3191,35.170718,-89.942817,,0,1:NATMAYSN,3
0:WEALEVNM,WEAVER ROAD at LEVI ROAD,st 5835,35.039924,-90.096531,,0,1:WEALEVNM,3
0:PARHAYEN,PARK AVENUE at HAYNES STREET,st 2319,35.107912,-89.965913,,0,1:PARHAYEN,3
0:WALMCEEN,WALNUT GROVE ROAD at MCELROY ROAD,st 2894,35.131058,-89.88286,,0,1:WALMCEEN,3
0:WALOAKEN,WALNUT GROVE ROAD at OAK GROVE ROAD,st 2895,35.131077,-89.879656,,0,1:WALOAKEN,3
0:POPMILFA,POPLAR AVENUE at MILLER FARMS ROAD,st 2001,35.09552,-89.815686,,0,1:POPMILFA,3
0:NHOSTANN,NORTH HOLLYWOOD STREET at STATEN AVENUE,st 3619,35.165616,-89.975589,,0,1:NHOSTANN,3
0:NHOVANNN,NORTH HOLLYWOOD STREET at VANDALE AVENUE,st 3620,35.167251,-89.975553,,0,1:NHOVANNN,3
0:WILMAXEF,WILLOW ROAD at MAXINE STREET,st 2815,35.085831,-89.918253,,0,1:WILMAXEF,3
0:FRAWATEF,FRAYSER BOULEVARD at WATKINS STREET,st 1379,35.217438,-90.002911,,0,1:FRAWATEF,3
0:FRADENEN,FRAYSER BOULEVARD at DENVER STREET,st 1380,35.217256,-89.996397,,0,1:FRADENEN,3
0:FRAOVEEM,FRAYSER BLVD at OVERTON CROSSING STREET,st 1381,35.217201,-89.994536,,0,1:FRAOVEEM,3
0:FRAUNIEN,FRAYSER BOULEVARD at UNIVERSITY STREET,st 6874,35.217055,-89.989928,,0,1:FRAUNIEN,3
0:FRAMOUEN,FRAYSER BLVD at MOUNTAIN TERRACE STREET,st 1384,35.217051,-89.984521,,0,1:FRAMOUEN,3
0:SHEMENEF,SHELBY DRIVE at MENDENHALL ROAD,st 2477,35.020304,-89.879506,,0,1:SHEMENEF,3
0:SHETUGEN,SHELBY DRIVE at TUGGLE ROAD,st 2475,35.020461,-89.891839,,0,1:SHETUGEN,3
0:SHELAMEF,SHELBY DRIVE at LARMA AVENUE,st 2474,35.020486,-89.896602,,0,1:SHELAMEF,3
0:SHEMALEN,SHELBY DRIVE at MALONE ROAD,st 2460,35.02049,-89.919531,,0,1:SHEMALEN,3
0:SHEDISEN,SHELBY DRIVE at DISTRIPLEX DRIVE WEST,st 2458,35.020556,-89.940586,,0,1:SHEDISEN,3
0:SHETCHEF,SHELBY DRIVE at TCHULAHOMA ROAD,st 2571,35.020622,-89.953735,,0,1:SHETCHEF,3
0:RIVBEASN,RIVERSIDE DRIVE at BEALE STREET,st 6710,35.141283,-90.057984,,0,1:RIVBEASN,3
0:RIVTOMSM,RIVERSIDE DRIVE at TOM LEE PARK,st 6711,35.135948,-90.062943,,0,1:RIVTOMSM,3
0:VOLMONWN,VOLLINTINE AVENUE at MONTGOMERY STREET,st 3852,35.165365,-90.016364,,0,1:VOLMONWN,3
0:VOLLEWWN,VOLLINTINE AVENUE at LEWIS STREET,st 3854,35.165706,-90.019397,,0,1:VOLLEWWN,3
0:BREVOLSF,BREEDLOVE STREET at VOLLINTINE AVENUE,st 3824,35.165305,-90.022021,,0,1:BREVOLSF,3
0:BREJEHSN,BREEDLOVE STREET at JEHL PL,st 3825,35.164268,-90.02221,,0,1:BREJEHSN,3
0:JACMCDWN,JACKSON AVENUE at MCDAVITT PLACE,st 3773,35.156614,-90.035665,,0,1:JACMCDWN,3
0:JACTHOWN,JACKSON AVENUE at THOMAS STREET,st 3774,35.156221,-90.037226,,0,1:JACTHOWN,3
0:CHEEVEEN,CHELSEA AVENUE at EVERGREEN STREET,st 1519,35.172623,-90.000341,,0,1:CHEEVEEN,3
0:CHEMCLEF,CHELSEA AVENUE at MCLEAN BOULEVARD,st 1520,35.172694,-89.995072,,0,1:CHEMCLEF,3
0:CHEUNIEN,CHELSEA AVENUE at UNIVERSITY STREET,st 1521,35.17333,-89.990858,,0,1:CHEUNIEN,3
0:CHEBRIEM,CHELSEA AVENUE at BRITTON STREET,st 1522,35.173708,-89.988381,,0,1:CHEBRIEM,3
0:CHETUNEN,CHELSEA AVENUE at TUNICA STREET,st 1523,35.173934,-89.98689,,0,1:CHETUNEN,3
0:CHEAUSEN,CHELSEA AVENUE at AUSTIN STREET,st 1524,35.174073,-89.985799,,0,1:CHEAUSEN,3
0:CHESPREN,CHELSEA AVENUE at SPRINGDALE STREET,st 1525,35.174385,-89.983753,,0,1:CHESPREN,3
0:CHEPEREN,CHELSEA AVENUE at PERES AVENUE,st 1526,35.174736,-89.981125,,0,1:CHEPEREN,3
0:CHEMEREN,CHELSEA AVENUE at MERTON STREET,st 4575,35.174488,-89.973241,,0,1:CHEMEREN,3
0:CHESTAEN,CHELSEA AVENUE at STANDRIGE STREET,st 4576,35.174451,-89.972023,,0,1:CHESTAEN,3
0:CHESTAEF,CHELSEA AVENUE at STANDRIGE STREET,st 4577,35.174433,-89.97147,,0,1:CHESTAEF,3
0:CHEFAIEF,CHELSEA AVENUE at FAIRFAX STREET,st 4578,35.174387,-89.970075,,0,1:CHEFAIEF,3
0:CHECAREM,CHELSEA AVENUE at CARPENTER STREET,st 4579,35.174296,-89.967672,,0,1:CHECAREM,3
0:CHECA1EM,CHELSEA AVENUE at CARPENTER STREET,st 4580,35.174177,-89.964417,,0,1:CHECA1EM,3
0:CHECAREF,CHELSEA AVENUE at CARPENTER STREET,st 4581,35.17414,-89.963343,,0,1:CHECAREF,3
0:CHEWAREF,CHELSEA AVENUE at WARFORD STREET,st 4582,35.174076,-89.961912,,0,1:CHEWAREF,3
0:POPCOLEM,POPLAR AVENUE at COLONIAL ROAD,st 1940,35.115152,-89.904399,,0,1:POPCOLEM,3
0:SUMSANWF,SUMMER AVENUE at SANDRIDGE STREET,st 4061,35.148938,-89.914266,,0,1:SUMSANWF,3
0:AIRDIRSM,AIRWAYS BOULEVARD at DIRECTORS ROW,st 5236,35.067391,-89.988635,,0,1:AIRDIRSM,3
0:AIRDIRSN,AIRWAYS BOULEVARD at DIRECTORS ROW,st 5238,35.064684,-89.99044,,0,1:AIRDIRSN,3
0:FRAFRAWN,FRAYSER BLVD at FRAYSER SCHOOL DRIVE,st 430,35.217906,-90.008916,,0,1:FRAFRAWN,3
0:FRASTEWM,FRAYSER BOULEVARD at STEELE STREET,st 1265,35.217962,-90.013857,,0,1:FRASTEWM,3
0:HOLHUBSN,HOLLYWOOD STREET at HUBBARD AVENUE,st 3656,35.173775,-89.97559,,0,1:HOLHUBSN,3
0:KNIKNIWN,KNIGHT ARNOLD ROAD at KNIGHT WAY,st 2734,35.06273,-89.913113,,0,1:KNIKNIWN,3
0:OUTWARSF,OUTLAND ROAD at WARRINGTON ROAD,st 7195,35.042471,-89.901781,,0,1:OUTWARSF,3
0:OUTCROSF,OUTLAND ROAD at CROMWELL AVENUE,st 7194,35.046064,-89.901817,,0,1:OUTCROSF,3
0:STEROLNM,STEELE STREET at ROLLING HILLS DRIVE,st 1374,35.216542,-90.014944,,0,1:STEROLNM,3
0:FLOFRASN,FLORIDA STREET at FRANK AVENUE,st 4885,35.090808,-90.063002,,0,1:FLOFRASN,3
0:FLOMCKSN,FLORIDA STREET at MCKELLAR AVENUE,st 4886,35.089825,-90.063036,,0,1:FLOMCKSN,3
0:AUCDANWF,AUCTION AVENUE at DANNY THOMAS BOULEVARD,st 812,35.155909,-90.039341,,0,1:AUCDANWF,3
0:BROGE1WM,BROOKS ROAD at GEMINI DRIVE,st 5258,35.062985,-90.050622,,0,1:BROGE1WM,3
0:UNIMARWM,UNION AVENUE at MARSHALL AVENUE,st 3018,35.138911,-90.036757,,0,1:UNIMARWM,3
0:UNILAUWN,UNION AVENUE at LAUDERDALE STREET,st 3021,35.14036,-90.042678,,0,1:UNILAUWN,3
0:STEFRANN,STEELE STREET at FRAYSER BOULEVARD,st 1375,35.217436,-90.014899,,0,1:STEFRANN,3
0:FRAFRAEM,FRAYSER BLVD at FRAYSER SCHOOL DRIVE,st 1376,35.217746,-90.010688,,0,1:FRAFRAEM,3
0:FRAFRAEN,FRAYSER BLVD at FRAYSER SCHOOL DRIVE,st 1377,35.217755,-90.009182,,0,1:FRAFRAEN,3
0:SWIFIESN,SWIFT STREET at FIELDS AVENUE,st 2227,35.103785,-90.073223,,0,1:SWIFIESN,3
0:SWIPERSN,SWIFT STREET at PERSON AVENUE,st 2228,35.102203,-90.0733,,0,1:SWIPERSN,3
0:PERCASEN,PERSON AVENUE at CEX STREET,st 2249,35.10181,-90.06976,,0,1:PERCASEN,3
0:HIGCHASF,HIGHLAND STREET at CHARLESWOOD AVENUE,st 3215,35.142719,-89.94487,,0,1:HIGCHASF,3
0:HIGBARSF,HIGHLAND STREET at BARWOOD CIRCLE,st 3216,35.140735,-89.944929,,0,1:HIGBARSF,3
0:HIGMIMSF,HIGHLAND STREET at MIMOSA AVENUE,st 3217,35.138974,-89.944998,,0,1:HIGMIMSF,3
0:HIGWAYSN,HIGHLAND STREET at WAYNOKA AVENUE,st 3218,35.137509,-89.945033,,0,1:HIGWAYSN,3
0:HIGOAKSF,HIGHLAND STREET at OAKLEY AVENUE,st 3219,35.136401,-89.945079,,0,1:HIGOAKSF,3
0:HIGHIGSN,HIGHLAND STREET at HIGHLAND PARK PLACE,st 3220,35.135462,-89.945103,,0,1:HIGHIGSN,3
0:HIGHI1SN,HIGHLAND STREET at HIGHLAND COVE,st 3221,35.134265,-89.945138,,0,1:HIGHI1SN,3
0:HIGLILSF,HIGHLAND STREET at LILLY LANE,st 3222,35.130512,-89.945244,,0,1:HIGLILSF,3
0:FLOFERNN,FLORIDA STREET at EAST FERNWOOD AVENUE,st 4967,35.092443,-90.062759,,0,1:FLOFERNN,3
0:FLOBELNM,FLORIDA STREET at BELZ BOULEVARD,st 4968,35.094025,-90.062726,,0,1:FLOBELNM,3
0:BELFLOWF,BELZ BOULEVARD at FLORIDA STREET,st 4879,35.094928,-90.063433,,0,1:BELFLOWF,3
0:BELKANWN,BELZ BOULEVARD at KANSAS STREET,st 4880,35.092613,-90.066829,,0,1:BELKANWN,3
0:KANFIRNF,KANSAS STREET at 1ST AVENUE,st 390,35.093418,-90.067415,,0,1:KANFIRNF,3
0:KANJOUNF,KANSAS STREET at JOUBERT AVENUE,st 443,35.094472,-90.067305,,0,1:KANJOUNF,3
0:PRERAISN,PRESCOTT ROAD at RAINES ROAD,st 2554,35.037197,-89.943726,,0,1:PRERAISN,3
0:PRESHESM,PRESCOTT ROAD at SHEMWELL AVENUE,st 2555,35.033872,-89.943776,,0,1:PRESHESM,3
0:PRESHESN,PRESCOTT ROAD at SHEMWELL AVENUE,st 2556,35.032308,-89.943801,,0,1:PRESHESN,3
0:ELMWILSM,ELMRIDGE STREET at WILLARD DRIVE,st 2557,35.030638,-89.945439,,0,1:ELMWILSM,3
0:ELMARNSN,ELMRIDGE STREET at ARNOLD ROAD,st 2558,35.028234,-89.945498,,0,1:ELMARNSN,3
0:TCHARNSF,TCHULAHOMA ROAD at ARNOLD ROAD,st 2569,35.027336,-89.954868,,0,1:TCHARNSF,3
0:CHENHIEN,CHELSEA AVENUE at NORTH HIGHLAND STREET,st 4591,35.174121,-89.944321,,0,1:CHENHIEN,3
0:CHECROEN,CHELSEA AVENUE at CROW ROAD,st 4592,35.174976,-89.941617,,0,1:CHECROEN,3
0:ORCJACSN,ORCHI ROAD at JACKSON AVENUE,st 4594,35.177859,-89.938036,,0,1:ORCJACSN,3
0:JACCEMNM,NATIONAL CEMETERY,st 359,35.175493,-89.939767,,0,1:JACCEMNM,3
0:GETDISSM,GETWELL ROAD at DISTRIPLEX DRIVE,st 2619,35.026271,-89.937098,,0,1:GETDISSM,3
0:GETDISSF,GETWELL ROAD at DISTRIPLEX DRIVE,st 2620,35.023806,-89.937069,,0,1:GETDISSF,3
0:GETSHESN,GETWELL ROAD at SHELBY DRIVE,st 2621,35.021617,-89.937033,,0,1:GETSHESN,3
0:GETSHESF,GETWELL ROAD at SHELBY DRIVE,st 2519,35.019501,-89.936915,,0,1:GETSHESF,3
0:GETHOLSM,GETWELL ROAD at HOLMES ROAD,st 2520,35.015309,-89.9369,,0,1:GETHOLSM,3
0:UNICOOWN,UNION AVENUE at COOPER STREET,st 2999,35.134224,-89.990191,,0,1:UNICOOWN,3
0:STAKI1WM,STAGE ROAD at KIRBY WHITTEN ROAD,st 978,35.204905,-89.841997,,0,1:STAKI1WM,3
0:STACHAWN,STAGE ROAD at CHARLES BRYAN ROAD,st 979,35.204777,-89.844966,,0,1:STACHAWN,3
0:STAALTWF,STAGE ROAD at ALTRURIA ROAD,st 287,35.204819,-89.848344,,0,1:STAALTWF,3
0:SHEGILEN,SHELBY DRIVE at GILBERT ROAD,st 5558,35.020859,-90.037725,,0,1:SHEGILEN,3
0:SHEAUBEN,SHELBY DRIVE at AUBURN ROAD,st 5559,35.020814,-90.035228,,0,1:SHEAUBEN,3
0:SHEFA1EN,SHELBY DRIVE at FAIRFIELD ROAD,st 5560,35.020813,-90.032996,,0,1:SHEFA1EN,3
0:SUMGLAWN,SUMMER AVENUE at GLANKLER STREET,st 4085,35.149608,-89.962226,,0,1:SUMGLAWN,3
0:SUMCARWF,SUMMER AVENUE at CARPENTER STREET,st 4086,35.149646,-89.964672,,0,1:SUMCARWF,3
0:SUMMERWN,SUMMER AVENUE at MERTON STREET,st 4088,35.15045,-89.974932,,0,1:SUMMERWN,3
0:NPAWESWN,NORTH PARKWAY at WEST DRIVE,st 3538,35.151593,-89.985734,,0,1:NPAWESWN,3
0:NPAUNIWM,NORTH PARKWAY at UNIVERSITY STREET,st 3539,35.1518,-89.987881,,0,1:NPAUNIWM,3
0:UNIDIAWN,UNION AVENUE at DIANA STREET,st 3000,35.134529,-89.993112,,0,1:UNIDIAWN,3
0:UNITUCWN,UNION AVENUE at TUCKER STREET,st 3001,35.134943,-89.997085,,0,1:UNITUCWN,3
0:UNIBARWN,UNION AVENUE at BARKSDALE STREET,st 3002,35.135087,-89.998545,,0,1:UNIBARWN,3
0:UNIWILWN,UNION AVENUE at WILLETT STREET,st 3006,35.136147,-90.008759,,0,1:UNIWILWN,3
0:UNIMCNWN,UNION AVENUE at MCNEIL STREET,st 3008,35.136471,-90.012123,,0,1:UNIMCNWN,3
0:CHETHOEN,CHELSEA AVENUE at THOMAS STREET,st 1625,35.163573,-90.036942,,0,1:CHETHOEN,3
0:CHETULEM,CHELSEA AVENUE at TULLY STREET,st 1626,35.164012,-90.035668,,0,1:CHETULEM,3
0:CHETULEF,CHELSEA AVENUE at TULLY STREET,st 1627,35.164247,-90.035036,,0,1:CHETULEF,3
0:CHEWOOEN,CHELSEA AVENUE at WOODLAWN STREET,st 1628,35.16469,-90.033828,,0,1:CHEWOOEN,3
0:MALLAUEF,MALLORY AVENUE at LAUDERDALE STREET,st 4786,35.08622,-90.0444,,0,1:MALLAUEF,3
0:CHRCHREN,CHRISTINE ROAD at CHRISTIN GARDEN ROAD,st 2551,35.04307,-89.953355,,0,1:CHRCHREN,3
0:WEANORSM,WEAVER ROAD at NORFLEET AVENUE,st 5830,35.039004,-90.096586,,0,1:WEANORSM,3
0:RAIRI2EN,RAINES ROAD at RIDGE ROAD,st 7245,35.035782,-90.110323,,0,1:RAIRI2EN,3
0:RAIOPPEN,RAINES ROAD at OPPORTUNITY ROAD,st 7244,35.035717,-90.117231,,0,1:RAIOPPEN,3
0:POPMOSEN,POPLAR AVENUE at MOSS ROAD,st 1943,35.113499,-89.897786,,0,1:POPMOSEN,3
0:WEAEYESN,WEAVER ROAD at EYERS ROAD,st 5825,35.051597,-90.096734,,0,1:WEAEYESN,3
0:WEAFIESN,WEAVER ROAD at FIELDS ROAD,st 5826,35.0498,-90.096722,,0,1:WEAFIESN,3
0:WEACARSN,WEAVER ROAD at CAREY ROAD,st 5827,35.048496,-90.096722,,0,1:WEACARSN,3
0:WEACANSN,WEAVER ROAD at CANARY LANE,st 5828,35.04711,-90.096688,,0,1:WEACANSN,3
0:NEENEENN,NEELY ROAD at NEELY ROAD COVE,st 5484,35.046335,-90.056109,,0,1:NEENEENN,3
0:NEEHILNN,NEELY ROAD at HILLVIEW AVENUE,st 5485,35.04747,-90.056108,,0,1:NEEHILNN,3
0:NEESOUNF,NEELY ROAD at SOUTHHILL AVENUE,st 5486,35.050795,-90.056119,,0,1:NEESOUNF,3
0:NEESOUNN,NEELY ROAD at SOUTHVIEW AVENUE,st 5487,35.051706,-90.056119,,0,1:NEESOUNN,3
0:GOOCOTNN,GOODLETT STREET at COTTONWOOD ROAD,st 2716,35.069425,-89.921127,,0,1:GOOCOTNN,3
0:COTCHIWN,COTTONWOOD ROAD at CHIPPEWA ROAD,st 2721,35.069605,-89.921846,,0,1:COTCHIWN,3
0:COLPRISN,COLEMAN ROAD at PRISCILLA AVENUE,st 1134,35.210153,-89.914751,,0,1:COLPRISN,3
0:WILCORWN,WILLOW ROAD at CORNELIA LANE,st 2799,35.085826,-89.908023,,0,1:WILCORWN,3
0:WILSEAWF,WILLOW ROAD at SEA ISLE ROAD,st 2800,35.085884,-89.911341,,0,1:WILSEAWF,3
0:WILDEAWF,WILLOW ROAD at DEARING ROAD,st 2801,35.085923,-89.913896,,0,1:WILDEAWF,3
0:DEMRENEF,DEMOCRAT ROAD at RENTAL ROAD,st 2772,35.068952,-89.972611,,0,1:DEMRENEF,3
0:DEMREPEM,DEMOCRAT ROAD at REPUBLICAN DRIVE,st 2773,35.069021,-89.969415,,0,1:DEMREPEM,3
0:DEMREPEF,FED EX,st 2774,35.06901,-89.966673,,0,1:DEMREPEF,3
0:DEMTCHEM,DEMOCRAT ROAD at TCHULAHOMA ROAD,st 2775,35.068852,-89.960437,,0,1:DEMTCHEM,3
0:KANFIRSN,KANSAS STREET at 1ST AVENUE,st 2258,35.093498,-90.067615,,0,1:KANFIRSN,3
0:BELKANEF,BELZ BOULEVARD at KANSAS STREET,st 4881,35.092747,-90.065845,,0,1:BELKANEF,3
0:BELFLOEN,BELZ BOULEVARD at FLORIDA STREET,st 6369,35.09499,-90.063002,,0,1:BELFLOEN,3
0:FLOROSSN,FLORIDA STREET at ROSIE DRIVE,st 4882,35.093882,-90.062936,,0,1:FLOROSSN,3
0:POPAARWF,POPLAR AVENUE at AARON BRENNER DRIVE,st 2008,35.09955,-89.846126,,0,1:POPAARWF,3
0:POPINTWN,POPLAR AVENUE at INTERNATIONAL PLACE,st 2009,35.099812,-89.847541,,0,1:POPINTWN,3
0:CHEWATEN,CHELSEA AVENUE at WATKINS STREET,st 1642,35.172968,-90.008669,,0,1:CHEWATEN,3
0:CHESTOEN,CHELSEA AVENUE at STONEWALL STREET,st 1516,35.172877,-90.006785,,0,1:CHESTOEN,3
0:STADAREN,STAGE ROAD at DAROLYN STREET,st 7164,35.204681,-89.85118,,0,1:STADAREN,3
0:GETSTUSF,GETWELL ROAD at STUART ROAD,st 6156,35.104114,-89.93085,,0,1:GETSTUSF,3
0:UNIREMEN,UNION AVENUE at REMBERT STREET,st 3046,35.134629,-89.995547,,0,1:UNIREMEN,3
0:UNIFLOEN,UNION AVENUE at FLORENCE STREET,st 3047,35.134315,-89.992648,,0,1:UNIFLOEN,3
0:UNICOOEN,UNION AVENUE at COOPER STREET,st 3048,35.134099,-89.990578,,0,1:UNICOOEN,3
0:UNISUMEM,UNION AVENUE at SUMMIT STREET,st 3049,35.134,-89.989649,,0,1:UNISUMEM,3
0:RANWHISF,RANGE LINE ROAD at WHITNEY AVENUE,st 107,35.207733,-89.975847,,0,1:RANWHISF,3
0:JACBARWN,JACKSON AVENUE at BARBARA DRIVE,st 3744,35.158085,-89.978177,,0,1:JACBARWN,3
0:JACTREWN,JACKSON AVENUE at TREZEVANT STREET,st 3745,35.158131,-89.979937,,0,1:JACTREWN,3
0:JACSPRWN,JACKSON AVENUE at SPRINGDALE STREET,st 3747,35.159045,-89.984032,,0,1:JACSPRWN,3
0:JACCHAWF,JACKSON AVENUE at CHARLES PLACE,st 3748,35.159485,-89.986146,,0,1:JACCHAWF,3
0:JACUNIWM,JACKSON AVENUE at UNIVERSITY CIRCLE,st 3749,35.159665,-89.987973,,0,1:JACUNIWM,3
0:UNIWATWN,UNION AVENUE at WATKINS STREET,st 3009,35.136704,-90.014403,,0,1:UNIWATWN,3
0:UNICLEWN,UNION AVENUE at CLEVELAND STREET,st 3010,35.136895,-90.016418,,0,1:UNICLEWN,3
0:NORDRAEN,NORRIS ROAD at DRAKE STREET,st 6130,35.083291,-90.021962,,0,1:NORDRAEN,3
0:NORELVEN,NORRIS ROAD at ELVIS PRESLEY BOULEVARD,st 6131,35.083254,-90.01881,,0,1:NORELVEN,3
0:BROGRAWM,BROOKS ROAD at GRAVES ROAD,st 5255,35.061964,-90.039599,,0,1:BROGRAWM,3
0:BROTULWF,BROOKS ROAD at TULANE ROAD,st 5256,35.062591,-90.046874,,0,1:BROTULWF,3
0:BROTRAWN,BROOKS ROAD at TRANQUILITY DRIVE,st 5257,35.062788,-90.048057,,0,1:BROTRAWN,3
0:SHEELVEF,SHELBY DRIVE at ELVIS PRESLEY BOULEVARD,st 5564 (no 1154),35.020792,-90.024575,,0,1:9704,3
0:WINTHIEF,WINCHESTER ROAD at 3RD STREET,st 1737 (no 1155),35.05521,-90.059501,,0,1:2005,3
0:SAXMITNF,SAX ROAD at MITCHELL ROAD,st 5867 (no 475),35.056586,-90.086819,,0,1:3801,3
0:SAXMITSN,SAX ROAD at MITCHELL ROAD,st 5822 (no 475),35.056175,-90.087029,,0,1:3801,3
0:WINTHIWN,WINCHESTER ROAD at 3RD STREET,st 1714 (no 1155),35.055326,-90.059645,,0,1:2005,3
0:SHEELVWF,SHELBY DRIVE at ELVIS PRESLEY BOULEVARD,st 5418 (no 1154),35.020998,-90.026377,,0,1:9704,3
0:CHECOLEF,CHELSEA AVENUE at COLBY STREET,st 1639,35.171607,-90.015207,,0,1:CHECOLEF,3
0:CHECLAEN,CHELSEA AVENUE at CLAYBROOK STREET,st 1640,35.172081,-90.013939,,0,1:CHECLAEN,3
0:CHEWATEM,CHELSEA AVENUE at WATKINS STREET,st 1641,35.172685,-90.011891,,0,1:CHEWATEM,3
0:MACPANEN,MACON ROAD at PANAMA STREET,st 3926,35.162625,-89.948635,,0,1:MACPANEN,3
0:MACNATEN,MACON ROAD at NATIONAL STREET,st 3927,35.162337,-89.947218,,0,1:MACNATEN,3
0:MACPEAEN,MACON ROAD at PEACHTREE STREET,st 3928,35.162023,-89.945647,,0,1:MACPEAEN,3
0:MACHIGEN,MACON ROAD at NORTH HIGHLAND STREET,st 3929,35.161762,-89.944396,,0,1:MACHIGEN,3
0:MACGOREN,MACON ROAD at GORDON STREET,st 3185,35.161511,-89.943068,,0,1:MACGOREN,3
0:MACLEAFE,MACON ROAD at LEAWOOD STREET,st 6334,35.162371,-89.937022,,0,1:MACLEAFE,3
0:MACSALEN,MACON ROAD at SALEM ROAD,st 6335,35.162323,-89.9339,,0,1:MACSALEN,3
0:MACMAREN,MACON ROAD at MARIA STREET,st 6336,35.162293,-89.93152,,0,1:MACMAREN,3
0:MACVICEF,MACON ROAD at VICTOR DRIVE,st 3940,35.162218,-89.928708,,0,1:MACVICEF,3
0:MACNGREN,MACON ROAD at NGRAHAM ROAD,st 3941,35.16219,-89.927446,,0,1:MACNGREN,3
0:MACGRAEF,MACON ROAD at GRAHAM ROAD,st 6940,35.162153,-89.926328,,0,1:MACGRAEF,3
0:MACWINEN,MACON ROAD at WINGFIELD ROAD,st 3942,35.16211,-89.923999,,0,1:MACWINEN,3
0:MACTATEN,MACON ROAD at TATUM ROAD,st 3943,35.162078,-89.922698,,0,1:MACTATEN,3
0:MACVAUEN,MACON ROAD at VAUGHN ROAD,st 3944,35.162037,-89.920737,,0,1:MACVAUEN,3
0:KNIDANWN,KNIGHT ARNOLD ROAD at DANVILLE ROAD,st 2735,35.062716,-89.915833,,0,1:KNIDANWN,3
0:KNIRANWF,KNIGHT ARNOLD ROAD at RANDY LANE,st 2736,35.064589,-89.919655,,0,1:KNIRANWF,3
0:GOOALMNM,GOODLETT STREET at ALMO AVENUE,st 2715,35.067004,-89.921221,,0,1:GOOALMNM,3
0:GETPARNM,GETWELL ROAD at PARK AVENUE,st 3162 (no 1080),35.106634,-89.930658,,0,1:3162,3
0:GETPARSF,GETWELL ROAD at PARK AVENUE,st 3163 (no 1080),35.106938,-89.930779,,0,1:3162,3
0:HIGCENSF,HIGHLAND STREET at CENTRAL AVENUE,st 3225 (no 1082),35.122777,-89.945547,,0,1:3225,3
0:OUWARNF,OUTLAND ROAD at WARRINGTON ROAD,st 1831,35.04281,-89.901592,,0,1:OUWARNF,3
0:OUTCRONF,OUTLAND ROAD at CROMWELL AVENUE,st 1832,35.046644,-89.901639,,0,1:OUTCRONF,3
0:OUTFOXNF,OUTLAND ROAD at FOXHALL DRIVE,st 1833,35.048521,-89.901646,,0,1:OUTFOXNF,3
0:BROROSWF,BROOKS ROAD at EAST ROSITA CIRCLE,st 5252,35.0618,-90.031727,,0,1:BROROSWF,3
0:STACOLWN,STAGE ROAD at COLEMAN ROAD,st 997,35.206041,-89.913795,,0,1:STACOLWN,3
0:STAAUSWM,STAGE ROAD at AUSTIN PEAY HWY,st 999,35.20538,-89.920709,,0,1:STAAUSWM,3
0:JAMHOMWM,JAMES ROAD at HOMEWOOD DRIVE,st 1197,35.205305,-89.92566,,0,1:JAMHOMWM,3
0:JAMRG1WM,JAMES ROAD at RIVER GROVE CIRCLE,st 1198,35.204712,-89.929638,,0,1:JAMRG1WM,3
0:WALREEEN,WALNUT GROVE ROAD at REESE STREET,st 3061,35.132939,-89.950486,,0,1:WALREEEN,3
0:SHEQUAWM,SHELBY DRIVE at QUALITY DRIVE,st 2425,35.020724,-89.907375,,0,1:SHEQUAWM,3
0:SHEMALWM,SHELBY DRIVE at MALONE ROAD,st 2427,35.020753,-89.915144,,0,1:SHEMALWM,3
0:SHEMA1WM,SHELBY DRIVE at MALONE ROAD,st 2428,35.020721,-89.91722,,0,1:SHEMA1WM,3
0:SHEDELWM,SHELBY DRIVE at DELP STREET,st 2429,35.020788,-89.928592,,0,1:SHEDELWM,3
0:SHEDELWN,SHELBY DRIVE at DELP STREET,st 2430,35.02079,-89.931012,,0,1:SHEDELWN,3
0:SHEGETWN,SHELBY DRIVE at GETWELL ROAD,st 2431,35.020814,-89.935929,,0,1:SHEGETWN,3
0:GETSHENF,GETWELL ROAD at SHELBY DRIVE,st 2573,35.022111,-89.936778,,0,1:GETSHENF,3
0:GETDISNN,GETWELL ROAD at DISTRIPLEX DRIVE,st 2574,35.023854,-89.936819,,0,1:GETDISNN,3
0:GETARNNN,GETWELL ROAD at ARNOLD ROAD,st 2575,35.02759,-89.936879,,0,1:GETARNNN,3
0:JAMSCEWN,JAMES ROAD at SCENIC HWY,st 1199,35.204064,-89.933992,,0,1:JAMSCEWN,3
0:POPCOLEN,POPLAR AVENUE at COLONIAL ROAD,st 1941,35.114577,-89.902287,,0,1:POPCOLEN,3
0:POPERIEN,POPLAR AVENUE at ERIN DRIVE,st 1942,35.113858,-89.89929,,0,1:POPERIEN,3
0:WALSEVWN,WALNUT GROVE ROAD at SEVIER STREET,st 2983,35.131917,-89.939288,,0,1:WALSEVWN,3
0:WALNORWF,WALNUT GROVE ROAD at NORMANDY CIRCLE,st 2984,35.131946,-89.94118,,0,1:WALNORWF,3
0:CENWINWN,CENTRAL AVENUE at WINDOVER ROAD,st 3516,35.123392,-89.948354,,0,1:CENWINWN,3
0:CENALEWF,CENTRAL AVENUE at ALEXANDER STREET,st 3517,35.123467,-89.951463,,0,1:CENALEWF,3
0:KIMALAEN,KIMBALL AVENUE at ALAMO STREET,st 4176,35.094804,-89.958918,,0,1:KIMALAEN,3
0:STABARWF,STAGE ROAD at BARTLETT BOULEVARD,st 982,35.204583,-89.866013,,0,1:STABARWF,3
0:STACOUWM,STAGE ROAD at COURT STREET,st 983,35.204241,-89.869891,,0,1:STACOUWM,3
0:STASHEWF,STAGE ROAD at SHELBY DRIVE,st 984,35.204758,-89.874608,,0,1:STASHEWF,3
0:STAOLDWF,STAGE ROAD at OLD BROWNSVILLE ROAD,st 985,35.205306,-89.881408,,0,1:STAOLDWF,3
0:MACPANWF,MACON ROAD at PANAMA STREET,st 3995,35.162758,-89.948435,,0,1:MACPANWF,3
0:HICGROSN,HICKORY HILL ROAD at GROCERY ROAD,st 7231,35.008931,-89.864487,,0,1:HICGROSN,3
0:HICDISSF,HICKORY HILL ROAD at DISTRIBUTION DRIVE,st 7230,35.01822,-89.86633,,0,1:HICDISSF,3
0:HICASHSN,HICKORY HILL ROAD at ASHRIDGE PLACE,st 6357,35.02748,-89.866427,,0,1:HICASHSN,3
0:KIRTIMSF,KIRBY PARKWAY at TIMBER TRAIL,st 7229,35.038457,-89.847332,,0,1:KIRTIMSF,3
0:KIRWILSN,KIRBY PARKWAY at WILDWIND DRIVE,st 7228,35.041073,-89.845998,,0,1:KIRWILSN,3
0:KIRCOUSN,KIRBY PARKWAY at COUNTRY OAKS CIRCLE,st 7227,35.043652,-89.843779,,0,1:KIRCOUSN,3
0:KIRWINSF,KIRBY PARKWAY at WINCHESTER ROAD,st 7225,35.049318,-89.843907,,0,1:KIRWINSF,3
0:BROLUCWN,BROOKS ROAD at LUCIBILL ROAD,st 5251,35.061701,-90.028023,,0,1:BROLUCWN,3
0:DEMTCHWF,DEMOCRAT ROAD at TCHULAHOMA ROAD,st 2746,35.06891,-89.955893,,0,1:DEMTCHWF,3
0:GETCOMNN,GETWELL ROAD at COMANCHE ROAD,st 2665,35.069037,-89.932053,,0,1:GETCOMNN,3
0:SWIWINNN,SWINNEA ROAD at WINCHESTER ROAD,st 6079,35.052232,-89.963998,,0,1:SWIWINNN,3
0:SWIRUNNN,SWINNEA ROAD at RUNWAY DRIVE,st 6078,35.035822,-89.963833,,0,1:SWIRUNNN,3
0:SWIRUNNM,SWINNEA ROAD at RUNWAY DRIVE,st 6077,35.026697,-89.963691,,0,1:SWIRUNNM,3
0:SWISHENF,SWINNEA ROAD at SHELBY DRIVE,st 6076,35.021727,-89.963654,,0,1:SWISHENF,3
0:GOOKNINN,GOODLETT STREET at KNIGHT ARNOLD ROAD,st 2713,35.064483,-89.921358,,0,1:GOOKNINN,3
0:SUMBERWN,SUMMER AVENUE at BERCLAIR ROAD,st 4059,35.148862,-89.910967,,0,1:SUMBERWN,3
0:SUMSANWN,SUMMER AVENUE at SANDRIDGE STREET,st 4060,35.1489,-89.912517,,0,1:SUMSANWN,3
0:JAMADVWM,STAGE JAMES ROAD at ADVANTAGE WAY DRIVE,st 1200,35.202673,-89.936321,,0,1:JAMADVWM,3
0:ELVDOLSN,ELVIS PRESLEY BOULEVARD at DOLAN DRIVE,st 5140,35.045201,-90.02518,,0,1:ELVDOLSN,3
0:SHEPLEEF,SHELBY DRIVE at PLEASANT HILL ROAD,st 2472 (no 1182),35.020398,-89.903741,,0,1:9705,3
0:HIGCENNF,HIGHLAND STREET at CENTRAL AVENUE,st 3283 (no 1082),35.123559,-89.945355,,0,1:3225,3
0:SUMNATWN,SUMMER AVENUE at NATIONAL STREET,st 4079 (no 1084),35.149514,-89.947659,,0,1:4079,3
0:MILSHENF,MILLBRANCH RD at SHELBY DR,st 320 (no 140),35.022903,-90.007435,,0,1:4304,3
0:VANFOUWN,VANCE AVENUE at 4TH STREET ,st 792 (no 1204),35.13533,-90.049895,,0,1:408,3
0:THIEASNN,3RD STREET at EASTMAN ROAD,st 5061,35.064487,-90.059013,,0,1:THIEASNN,3
0:WATNPANN,WATKINS STREET at GALLOWAY AVENUE,st 3895,35.152432,-90.012609,,0,1:WATNPANN,3
0:MILSHESN,MILLBRANCH RD at SHELBY DR,st 5346 (no 140),35.021365,-90.007602,,0,1:4304,3
0:VANFOUEN,VANCE AVENUE at 4TH STREET ,st 2135 (no 1204),35.135205,-90.050238,,0,1:408,3
0:SUMHIGEN,SUMMER AVENUE at HIGHLAND STREET,st 4101 (no 1079),35.149412,-89.944671,,0,1:5310,3
0:TCHSHENF,TCHULAHOMA ROAD at SHELBY DRIVE,st 7082,35.021093,-89.954505,,0,1:TCHSHENF,3
0:WATGALSN,WATKINS STREET at GALLOWAY AVENUE,st 3869,35.152316,-90.012831,,0,1:WATGALSN,3
0:WALHI2NE,WALNUT GROVE ROAD at HIGHLAND STREET,st 6943 (no 1176),35.131816,-89.94522,,0,1:3407,3
0:SUMBALEM,SUMMER AVENUE at BALTIC STREET,st 4096 (no 1188),35.149346,-89.959027,,0,1:5313,3
0:SHEMILWN,SHELBY DR at MILLBRANCH RD,st 5387,35.021147,-90.0071,,0,1:SHEMILWN,3
0:SHEBOEWF,SHELBY DR at BOEINGSHIRE DR,st 5386,35.021109,-89.997325,,0,1:SHEBOEWF,3
0:SHEAIRWF,SHELBY  DR at AIRWAYS BLVD,st 5384,35.021132,-89.991059,,0,1:SHEAIRWF,3
0:AIRJAMNF,AIRWAYS BLVD at JAMIE DR,st 6669,35.016144,-89.989783,,0,1:AIRJAMNF,3
0:AIRMCKNN,AIRWAYS BLVD at MCKELLAR WOODS,st 5382,35.011309,-89.989799,,0,1:AIRMCKNN,3
0:AIRHOLNF,AIRWAYS BLVD at HOLMES RD,st 5381,35.006723,-89.989815,,0,1:AIRHOLNF,3
0:HOLHOREN,HOLMES RD at HORNSBY DR,st 5362,35.006369,-89.993881,,0,1:HOLHOREN,3
0:AIRWILSN,AIRWAYS BOULEVARD at WILSON ROAD,st 5351,35.013874,-89.989973,,0,1:AIRWILSN,3
0:AIRMCKSF,AIRWAYS BOULEVARD at MCKELLAR WOODS,st 5352,35.010477,-89.989999,,0,1:AIRMCKSF,3
0:HOLHORWN,HOLMES ROAD at HORNSBY DRIVE,st 5354,35.006538,-89.993649,,0,1:HOLHORWN,3
0:SHEAIREN,SHELBY DRIVE at AIRWAYS BOULEVARD,st 5348,35.020971,-89.990993,,0,1:SHEAIREN,3
0:AIRSHESF,AIRWAYS BOULEVARD at SHELBY DRIVE,st 5349,35.020372,-89.989944,,0,1:AIRSHESF,3
0:AIRJAMSN,AIRWAYS BOULEVARD at JAMIE DRIVE,st 5350,35.015885,-89.989982,,0,1:AIRJAMSN,3
0:CLEVANNN,CLEVELAND STREET at VANCE AVENUE,st 6159,35.133336,-90.016718,,0,1:CLEVANNN,3
0:CLEUNINN,CLEVELAND STREET at UNION AVENUE,st 6160,35.136696,-90.016572,,0,1:CLEUNINN,3
0:HOLHUDWN,HOLMES RD at HUDGINS RD,st 5364,35.006488,-89.999416,,0,1:HOLHUDWN,3
0:SHEBOEEN,SHELBY DRIVE at BOEINGSHIRE DRIVE,st 5347,35.020948,-89.997248,,0,1:SHEBOEEN,3
0:HOLMILWM,HOLMES ROAD at MILLBRANCH ROAD,st 5366,35.006502,-90.006022,,0,1:HOLMILWM,3
0:MAIBUTIB,MAIN STREET at BUTLER AVENUE,st 7255,35.134107,-90.058948,,0,1:MAIBUTIB,3
0:MAIBUTOB,MAIN STREET at BUTLER AVENUE,st 707,35.134116,-90.058981,,0,1:MAIBUTOB,3
0:VANBOYEN,VANCE AVENUE at BOYD STREET,st 778,35.133915,-90.036715,,0,1:VANBOYEN,3
0:FARFARSN,FARONIA ROAD at FARROW ROAD,st 5414,35.023257,-90.019955,,0,1:FARFARSN,3
0:RAIBAREF,RAINES ROAD at BARTON DRIVE,st 5405,35.035404,-90.021737,,0,1:RAIBAREF,3
0:GOOGRASF,GOODLETT STREET at GRANDVIEW AVENUE,st 7042,35.118765,-89.926033,,0,1:GOOGRASF,3
0:CENMILEN,CENTRAL AVENUE at MILTON AVENUE,st 3494,35.124022,-89.971877,,0,1:CENMILEN,3
0:NPAUNIWN,NORTH PARKWAY at UNIVERSITY STREET,st 3540,35.15217,-89.991777,,0,1:NPAUNIWN,3
0:NPAUNIWF,NORTH PARKWAY at UNIVERSITY STREET,st 3541,35.152341,-89.993648,,0,1:NPAUNIWF,3
0:KIMRAIWN,KIMBALL AVENUE at RAILTON ROAD,st 4161,35.094805,-89.950611,,0,1:KIMRAIWN,3
0:KIMBROWN,KIMBALL AVENUE at BROWER STREET,st 4162,35.094834,-89.952879,,0,1:KIMBROWN,3
0:KIMGREWN,KIMBALL AVENUE at GREER STREET,st 4163,35.094881,-89.955168,,0,1:KIMGREWN,3
0:MCLKRAWM,MCLEMORE AVENUE at KRAYER STREET,st 4275,35.115684,-90.036181,,0,1:MCLKRAWM,3
0:MTMHELSN,MT MORIAH ROAD at HELENE ROAD,st 2829,35.088151,-89.896206,,0,1:MTMHELSN,3
0:MTMAMESN,MT MORIAH ROAD at AMERICAN WAY,st 2831,35.080847,-89.889089,,0,1:MTMAMESN,3
0:MENFOXSN,MENDENHALL ROAD at FOX PLAZA DRIVE,st 2693,35.074799,-89.884868,,0,1:MENFOXSN,3
0:MENCOTSM,MENDENHALL ROAD at COTTONWOOD ROAD,st 2694,35.072262,-89.885438,,0,1:MENCOTSM,3
0:MACSYCWF,MACON ROAD at SYCAMORE VIEW ROAD,st 4035,35.162969,-89.860608,,0,1:MACSYCWF,3
0:THIEXCNM,3RD STREET at EXCHANGE AVENUE,st 642,35.149825,-90.048076,,0,1:THIEXCNM,3
0:THINPANN,3RD STREET at NORTH PARKWAY,st 646,35.15533,-90.045872,,0,1:THINPANN,3
0:AUCTHIWN,AUCTION AVENUE at 3RD STREET,st 815,35.156491,-90.045407,,0,1:AUCTHIWN,3
0:SECWINSM,2ND STREET at WINCHESTER AVENUE,st 614,35.153319,-90.048286,,0,1:SECWINSM,3
0:TILNATSN,TILLMAN STREET at NATHAN AVENUE,st 7250,35.143888,-89.961415,,0,1:TILNATSN,3
0:SECBULSN,2ND STREET at BULTER AVENUE,st 624,35.134187,-90.056536,,0,1:SECBULSN,3
0:WELWILSN,WELLINGTON STREET at WILLIAMS AVENUE,st 4348,35.122836,-90.047188,,0,1:WELWILSN,3
0:WELMCESN,WELLINGTON STREET at MCEWEN PLACE,st 4349,35.122076,-90.04721,,0,1:WELMCESN,3
0:POPKIREM,POPLAR AVENUE at KIRBY PARKWAY,st 1964,35.098522,-89.841384,,0,1:POPKIREM,3
0:POPMONEN,POPLAR AVENUE at MONTGOMERY STREET,st 1887,35.14424,-90.019799,,0,1:POPMONEN,3
0:WEAWALNN,WEAVER ROAD at WALK ROAD,st 5865,35.051847,-90.096535,,0,1:WEAWALNN,3
0:WHIBAREF,WHITE STATION ROAD at BARTLETT ROAD,st 3112,35.155108,-89.891438,,0,1:WHIBAREF,3
0:JACWATEN,JACKSON AVENUE at WATKINS STREET,st 294 (no 48),35.158106,-90.012041,,0,1:105,3
0:WATKLOUI,WATKINS STREET at LOUISVILLE AVENUE,st 6857 (no 1151),35.175557,-90.008296,,0,1:1012,3
0:HIGPOPSN,HIGHLAND STREET at POPLAR AVENUE,st 3223,35.128167,-89.945315,,0,1:HIGPOPSN,3
0:HIGWINSN,HIGHLAND STREET at WINDOVER ROAD,st 3224,35.12658,-89.945405,,0,1:HIGWINSN,3
0:HIGWATSM,HIGHLAND STREET at WATUGA AVENUE,st 3226,35.120842,-89.945669,,0,1:HIGWATSM,3
0:HIGMIDSN,HIGHLAND STREET at MIDLAND AVENUE,st 3227,35.119395,-89.945727,,0,1:HIGMIDSN,3
0:HIGSOUSN,HIGHLAND STREET at SOUTHERN AVENUE,st 3228,35.115812,-89.945841,,0,1:HIGSOUSN,3
0:COVCOVNF,COVINGTON PIKE at COVINGTON WAY,st 1120,35.183283,-89.896301,,0,1:COVCOVNF,3
0:PERSWIWN,PERSON AVENUE at SWIFT STREET,st 7060,35.102131,-90.073101,,0,1:PERSWIWN,3
0:SWIFIENF,SWIFT STREET at FIELDS AVENUE,st 2268,35.103865,-90.073115,,0,1:SWIFIENF,3
0:SWIEDSNN,SWIFT STREET at EDSEL AVENUE,st 2270,35.106841,-90.073024,,0,1:SWIEDSNN,3
0:DANFIRSF,DANNY THOMAS BOULEVARD at FIRESTONE AVE,st 680,35.174737,-90.036011,,0,1:DANFIRSF,3
0:HICSHESN,HICKORY HILL ROAD at SHELBY DRIVE,st 6358,35.020661,-89.866335,,0,1:HICSHESN,3
0:ELMSPIEN,ELMORE ROAD at SPICER COVE,st 7065,35.185053,-89.890882,,0,1:ELMSPIEN,3
0:ALCLAPEN,ALCY ROAD at LAPALOMA STREET,st 4695 (no 1070),35.078292,-89.998908,,0,1:4695,3
0:MALBENEN,MALLORY AVENUE at BENTON STREET,st 6127 (no 1075),35.086039,-90.034635,,0,1:6114,3
0:FLOMALSN,FLORIDA STREET at MALLORY AVENUE,st 376 (no 168),35.086831,-90.063102,,0,1:1200,3
0:FROGEPSF,FRONT STREET at G E PATTERSON AVENUE,st 151 (no 1072),35.13265,-90.060874,,0,1:151,3
0:THOGILNF,THOMAS STREET at GILLILAND AVENUE,st 1366,35.210848,-90.032262,,0,1:THOGILNF,3
0:THOCINNM,THOMAS STREET at CINDY LANE,st 1285,35.213207,-90.031729,,0,1:THOCINNM,3
0:FRATHOEF,FRAYSER BOULEVARD at THOMAS STREET,st 6870,35.2167,-90.030032,,0,1:FRATHOEF,3
0:FRAMILEN,FRAYSER BOULEVARD at MILLINGTON ROAD,st 6871,35.216521,-90.02888,,0,1:FRAMILEN,3
0:GERBELNN,GERMANTOWN PARKWAY at BELLEVUE BOULEVARD,st 952,35.185149,-89.79261,,0,1:GERBELNN,3
0:UNIDUNWN,UNION AVENUE at DUNLAP STREET,st 3017,35.138633,-90.03367,,0,1:UNIDUNWN,3
0:SHEELVEN,SHELBY DRIVE at ELVIS PRESLEY BOULEVARD,st 5563,35.020836,-90.025508,,0,1:SHEELVEN,3
0:AIRREGNN,AIR PARK STREET at REGAL BOULEVARD,st 2608,35.050178,-89.931213,,0,1:AIRREGNN,3
0:LAUSPANN,LAUDERDALE STREET at SOUTH PARKWAY,st 4803,35.106686,-90.043874,,0,1:LAUSPANN,3
0:SPAMILEN,SOUTH PARKWAY EAST at MILLER STREET,st 2283,35.107159,-90.041606,,0,1:SPAMILEN,3
0:SPAWEBEM,SOUTH PARKWAY EAST at WEBB STREET,st 2284,35.107114,-90.038951,,0,1:SPAWEBEM,3
0:MARWALSM,MARJORIE STREET at WALDORF AVENUE,st 4737,35.106667,-90.036959,,0,1:MARWALSM,3
0:MARWALSN,MARJORIE STREET at WALDORF AVENUE,st 4738,35.105684,-90.03748,,0,1:MARWALSN,3
0:MARLELSM,MARJORIE STREET at LELAND STREET,st 4740,35.103959,-90.036197,,0,1:MARLELSM,3
0:MADIJEFF,MADISON AVENUE at NEELY STREET,st 6850,35.142076,-90.041128,,0,1:MADIJEFF,3
0:DTHTROWB,MADISON AVENUE at DANNY THOMAS BOULEVARD,st 768,35.142603,-90.042389,,0,1:DTHTROWB,3
0:THITROWB,MADISON AVENUE at 3RD STREET,st 6504,35.144231,-90.049063,,0,1:THITROWB,3
0:JEFFERNN,JEFFERSON AVENUE at MAIN STREET,st 6505,35.147252,-90.052062,,0,1:JEFFERNN,3
0:PERFLASN,PERKINS ROAD at FLAMINGO ROAD,st 3132,35.096674,-89.906894,,0,1:PERFLASN,3
0:PERKNINF,PERKINS ROAD at KNIGHT ARNOLD ROAD,st 6642,35.063444,-89.905549,,0,1:PERKNINF,3
0:STAWALWN,STAGE ROAD at WALMART DRIVE,st 964,35.204488,-89.781818,,0,1:STAWALWN,3
0:STAKATWN,STAGE ROAD at KATE HYDE BOULEVARD,st 965,35.204538,-89.78431,,0,1:STAKATWN,3
0:STAGERWM,STAGE ROAD at GERMANTOWN PARKWAY,st 966,35.204575,-89.788375,,0,1:STAGERWM,3
0:GERROCSF,GERMANTOWN PARKWAY at ROCKCREEK PARKWAY,st 901,35.191458,-89.79272,,0,1:GERROCSF,3
0:FOUGEOSF,4TH STREET at GEORGIA AVENUE,st 15 (no 1088),35.128896,-90.050605,,0,1:15,3
0:FROGEPNN,CENTRAL STATION,st 24 (no 14),35.132731,-90.060719,,0,1:4,3
0:FLOSPANF,FLORIDA STREET at SOUTH PARKWAY EAST,st 4981 (no 1073),35.108253,-90.06226,,0,1:4872,3
0:FLOMALNF,FLORIDA STREET at MALLORY AVENUE,st 389 (no 168),35.08684,-90.062903,,0,1:1200,3
0:MALBENWF,MALLORY AVENUE at BENTON STREET,st 6114 (no 1075),35.086191,-90.034314,,0,1:6114,3
0:KETALCWM,ALCY ROAD at KETCHUM ROAD,st 4702 (no 987),35.078624,-89.986057,,0,1:4702,3
0:JONHOLNF,JONETTA STREET at HOLMES ROAD,st 4921 (no 1132),35.00642,-90.074622,,0,1:7018,3
0:HORFAISN,HORN LAKE ROAD at FAIRWAY AVENUE,st 4898 (no 1133),35.048222,-90.069473,,0,1:4898,3
0:THIMCLSF,3RD STREET at MCLEMORE AVENUE,st 4986 (no 72),35.115394,-90.055303,,0,1:1503,3
0:PERPOPSN,PERKINS EXT at POPLAR AVENUE,st 3127 (no 98),35.116607,-89.909264,,0,1:5503,3
0:DEMTC1EM,DEMOCRAT ROAD at TCHULAHOMA ROAD,st 2776,35.068777,-89.956943,,0,1:DEMTC1EM,3
0:HOLJACNF,HOLLYWOOD STREET at JACKSON AVENUE,st 6522,35.158154,-89.975908,,0,1:HOLJACNF,3
0:VOLAVAWF,VOLLINTINE AVENUE at NORTH AVALON STREET,st 4550,35.164215,-90.004796,,0,1:VOLAVAWF,3
0:VOLMCNWN,VOLLINTINE AVENUE at NORTH MCNEIL STREET,st 4552,35.164547,-90.008183,,0,1:VOLMCNWN,3
0:AUCSEVWN,AUCTION AVENUE at 7TH STREET,st 813,35.155927,-90.040326,,0,1:AUCSEVWN,3
0:STANBRWF,STAGE ROAD at NEW BRUNSWICK ROAD,st 285,35.204479,-89.778162,,0,1:STANBRWF,3
0:CENMELEF,CENTRAL AVENUE at MELROSE STREET,st 7028,35.126417,-90.013304,,0,1:CENMELEF,3
0:POPPERWM,POPLAR AVENUE at PERKINS ROAD,st 2029,35.115529,-89.904962,,0,1:POPPERWM,3
0:DELRAIEN,DELLWOOD AVENUE at RAINIER STREET,st 1370,35.211388,-90.018559,,0,1:DELRAIEN,3
0:DELCANEF,DELLWOOD AVENUE at CANFIELD AVENUE,st 1371,35.212923,-90.015954,,0,1:DELCANEF,3
0:STEDELNF,STEELE STREET at DELLWOOD AVENUE,st 1372,35.213611,-90.014979,,0,1:STEDELNF,3
0:STEGRENN,STEELE STREET at GREENDALE AVENUE,st 1373,35.214701,-90.014956,,0,1:STEGRENN,3
0:COVPLENF,COVINGTON PIKE at PLEASANT VIEW ROAD,st 1119 (no 1095),35.176724,-89.896626,,0,1:1119,3
0:COVPLESM,COVINGTON PIKE at PLEASANT VIEW ROAD,st 1081 (no 1095),35.180084,-89.896574,,0,1:1119,3
0:WINPERWN,WINCHESTER ROAD at PERKINS ROAD,st 6638 (no 1178),35.051228,-89.907123,,0,1:1772,3
0:LAMBELNF,LAMAR AVENUE at BELLEVUE BOULEVARD,st 204 (no 1122),35.128878,-90.021258,,0,1:5732,3
0:THIPEBSF,3RD STREET at PEEBLES ROAD,st 143 (no 58),35.06623,-90.058925,,0,1:3902,3
0:JACMA1SN,JACKSON AVENUE at MAYFLOWER AVENUE,st 3730,35.169189,-89.947337,,0,1:JACMA1SN,3
0:JACFARSN,JACKSON AVENUE at FARMVILLE ROAD,st 3733,35.166781,-89.950476,,0,1:JACFARSN,3
0:JACROSSM,JACKSON AVENUE at ROSEAMOND AVENUE,st 3734,35.16555,-89.951985,,0,1:JACROSSM,3
0:JACMAPM,JACKSON AVENUE at MAPLE DRIVEIVE,st 3743,35.158057,-89.976937,,0,1:JACMAPM,3
0:5504,EXETER ROAD at POPLAR AVENUE,no 136,35.091907,-89.802536,,0,1:5504,3
0:POPPEREN,POPLAR AVENUE at PERKINS EXTD,st 1937,35.11716,-89.90942,,0,1:POPPEREN,3
0:JACBELEN,JACKSON AVENUE at BELVEDERE BOULEVARD,st 3903,35.160371,-90.002341,,0,1:JACBELEN,3
0:WINNGTWF,WINCHESTER ROAD at GETWELL ROAD,st 442 (no 188),35.051969,-89.934936,,0,1:2003,3
0:WINBIGWF,WINCHESTER ROAD at BISHOPS GATE DRIVE,st 7156,35.05047,-89.878637,,0,1:WINBIGWF,3
0:PAUUNISF,PAULINE STREET at UNION AVENUE,st 7170,35.137729,-90.028303,,0,1:PAUUNISF,3
0:PAUMADSF,PAULINE STREET at MADISON AVENUE,st 7169,35.139873,-90.02829,,0,1:PAUMADSF,3
0:ARNPREEF,ARNOLD ROAD at PRESCOTT ROAD,st 7243,35.027892,-89.943465,,0,1:ARNPREEF,3
0:TCHMELNF,TCHULAHOMA ROAD at MELODYWOOD DRIVE,st 7122,35.014309,-89.954471,,0,1:TCHMELNF,3
0:HOLMEMWM,HOLMES ROAD at MEMPHIS OAKS DRIVE,st 2515,35.006152,-89.925161,,0,1:HOLMEMWM,3
0:HOLMALWN,HOLMES ROAD at MALONE ROAD,st 2514,35.006153,-89.918908,,0,1:HOLMALWN,3
0:HOLPLEWN,HOLMES ROAD at PLEASANT HILL ROAD,st 2512,35.006025,-89.901047,,0,1:HOLPLEWN,3
0:FRALADEN,FRAYSER BOULEVARD at LADUE STREET,st 1388,35.221215,-89.972717,,0,1:FRALADEN,3
0:DELBASWN,DELLWOOD AVENUE at BASKIN STREET,st 1272,35.210272,-90.022248,,0,1:DELBASWN,3
0:DELMADWF,DELLWOOD AVENUE at MADEWELL STREET,st 1273,35.21047,-90.025981,,0,1:DELMADWF,3
0:JACMACEN,JACKSON AVENUE at MACON ROAD,st 3924,35.164113,-89.953648,,0,1:JACMACEN,3
0:MILWHINF,MILLINGTON ROAD at WHITNEY AVENUE,st 6882,35.21149,-90.02865,,0,1:MILWHINF,3
0:MILCINNN,MILLINGTON ROAD at CINDY LANE,st 6883,35.21401,-90.028616,,0,1:MILCINNN,3
0:FRAMILWF,FRAYSER BOULEVARD at MILLINGTON ROAD,st 6884,35.216682,-90.029113,,0,1:FRAMILWF,3
0:THOFRASF,THOMAS STREET at FRAYSER CIRCLE,st 1351,35.214994,-90.031418,,0,1:THOFRASF,3
0:THOMARSM,THOMAS STREET at MARSH AVENUE,st 1352,35.213117,-90.032084,,0,1:THOMARSM,3
0:DANROYSM,DANNY THOMAS BOULEVARD at ROYAL AVENUE,st 673,35.187874,-90.035275,,0,1:DANROYSM,3
0:DANRO1SM,DANNY THOMAS BOULEVARD at ROYAL AVENUE,st 674,35.186194,-90.035397,,0,1:DANRO1SM,3
0:DANRO2SM,DANNY THOMAS BOULEVARD at ROYAL AVENUE,st 675,35.183566,-90.035487,,0,1:DANRO2SM,3
0:MACNATWN,MACON ROAD at NATIONAL STREET,st 3994,35.162444,-89.946908,,0,1:MACNATWN,3
0:CENLAMWM,CENTRAL AVENUE at LARMA AVENUE,st 7026,35.126677,-90.015506,,0,1:CENLAMWM,3
0:LAMCLEWN,LAMAR AVENUE at CLEVELAND STREET,st 5708,35.127233,-90.018227,,0,1:LAMCLEWN,3
0:WHIHILWN,WHITNEY AVENUE at THOMAS STREET,st 1275 (no 1125),35.209123,-90.033858,,0,1:1363,3
0:JAMRANWF,JAMES ROAD at RANGE LINE ROAD,st 1684 (no 1150),35.1992,-89.976345,,0,1:4014,3
0:SHEHICEN,SHELBY DRIVE at HICKORY HILL ROAD,st 2480,35.020304,-89.866811,,0,1:SHEHICEN,3
0:SHECLAEF,SHELBY DRIVE at CLARKE ROAD,st 2478,35.020353,-89.874888,,0,1:SHECLAEF,3
0:NATKRUSF,NATIONAL STREET at KRUGER ROAD,st 6979,35.176583,-89.940098,,0,1:NATKRUSF,3
0:CHENHIWF,CHELSEA AVENUE at NORTH HIGHLAND STREET,st 4515,35.174086,-89.945007,,0,1:CHENHIWF,3
0:CHEPANWF,CHELSEA AVENUE at PANAMA STREET,st 4516,35.173507,-89.946901,,0,1:CHEPANWF,3
0:CHRPREEN,CHRISTINE ROAD at PRESCOTT ROAD,st 2553,35.04323,-89.943849,,0,1:CHRPREEN,3
0:CHRPREEM,CHRISTINE ROAD at PRESCOTT ROAD,st 2552,35.043214,-89.945938,,0,1:CHRPREEM,3
0:TCHOAKSM,TCHULAHOMA ROAD at OAK LAKE LANE,st 2547,35.046378,-89.954843,,0,1:TCHOAKSM,3
0:TCHOAKSN,TCHULAHOMA ROAD at OAK LAKE LANE,st 2548,35.048566,-89.954311,,0,1:TCHOAKSN,3
0:CHRWALWN,CHRISTINE ROAD at WALNUT CIRCLE COVE,st 7249,35.043174,-89.951023,,0,1:CHRWALWN,3
0:PRERAINF,PRESCOTT ROAD at RAINES ROAD,st 7186,35.037134,-89.943483,,0,1:PRERAINF,3
0:VOLIDLEN,VOLLINTINE AVENUE at N IDLEWILD STREET,st 4560,35.163299,-89.997368,,0,1:VOLIDLEN,3
0:VOLMCLEF,VOLLINTINE AVENUE at N MCLEAN BOULEVARD,st 4561,35.163137,-89.995707,,0,1:VOLMCLEF,3
0:VOLUNIEN,VOLLINTINE AVENUE at UNIVERSITY STREET,st 4564,35.16258,-89.990383,,0,1:VOLUNIEN,3
0:VOLHALEN,VOLLINTINE AVENUE at HALLWOOD DRIVE,st 4566,35.162292,-89.987305,,0,1:VOLHALEN,3
0:VOLSPREM,VOLLINTINE AVENUE at SPRINGDALE STREET,st 4567,35.162174,-89.984837,,0,1:VOLSPREM,3
0:SPRALANN,SPRINGDALE STREET at ALAMEDA AVENUE,st 4568,35.163362,-89.983972,,0,1:SPRALANN,3
0:JACDUNEN,JACKSON AVENUE at DUNSCOMB PLACE,st 3775,35.156435,-90.035709,,0,1:JACDUNEN,3
0:JACMANEN,JACKSON AVENUE at MANASSAS STREET,st 3776,35.156899,-90.03365,,0,1:JACMANEN,3
0:JACLEAEN,JACKSON AVENUE at LEATH STREET,st 3777,35.156881,-90.032045,,0,1:JACLEAEN,3
0:JACPEAEM,JACKSON AVENUE at PEARCE STREET,st 3778,35.156934,-90.030185,,0,1:JACPEAEM,3
0:JACAYEEN,JACKSON AVENUE at AYERS STREET,st 3779,35.156969,-90.028658,,0,1:JACAYEEN,3
0:JACHASEN,JACKSON AVENUE at HINGS STREET,st 3780,35.157022,-90.02703,,0,1:JACHASEN,3
0:NATKRUNM,NATIONAL STREET at KRUGER ROAD,st 4593 (no 1078),35.176217,-89.940121,,0,1:4593,3
0:CHEBREEN,CHELSEA AVENUE at BREEDLOVE STREET,st 1636 (no 39),35.169155,-90.021864,,0,1:802,3
0:WATLOUN,WATKINS STREET at LEVEE ROAD,st 100 (no 49),35.175745,-90.008362,,0,1:1006,3
0:WINGE1EN,WINCHESTER ROAD at GETWELL ROAD,st 1764 (no 188),35.051715,-89.934528,,0,1:2003,3
0:MACBEREF,MACON ROAD at BERCLAIR ROAD,st 1116,35.161819,-89.909822,,0,1:MACBEREF,3
0:MCCSTREN,MCCRORY AVENUE at STRATFORD ROAD,st 1117,35.160839,-89.906071,,0,1:MCCSTREN,3
0:MCCDOREN,MCCRORY AVENUE at DORA STREET,st 3946,35.160962,-89.904067,,0,1:MCCDOREN,3
0:MCCGAREN,MCCRORY AVENUE at GARY STREET,st 3947,35.160143,-89.900549,,0,1:MCCGAREN,3
0:MCCNMEEM,MCCRORY AVENUE at NORTH MENDENHALL ROAD,st 3948,35.15947,-89.898192,,0,1:MCCNMEEM,3
0:MACWHIEN,MACON ROAD at WHITE STATION ROAD,st 3111,35.158573,-89.896191,,0,1:MACWHIEN,3
0:SAXHAZNN,SAX ROAD at HAZELWOOD ROAD,st 5868,35.059562,-90.086742,,0,1:SAXHAZNN,3
0:SAXHARNN,SAX ROAD at HARAHAN ROAD,st 5869,35.062574,-90.086699,,0,1:SAXHARNN,3
0:SPALAPEN,SOUTH PARKWAY EAST at LAPALOMA STREET,st 2304,35.108714,-89.997851,,0,1:SPALAPEN,3
0:SPACASEN,SOUTH PARKWAY EAST at CALIA STREET,st 2305,35.109203,-89.99462,,0,1:SPACASEN,3
0:SPACOOEN,SOUTH PARKWAY EAST at COOPER STREET,st 2306,35.109702,-89.992661,,0,1:SPACOOEN,3
0:SPALAMEN,SOUTH PARKWAY EAST at LAMAR AVENUE,st 278,35.11006,-89.992086,,0,1:SPALAMEN,3
0:PARLAMEF,PARK AVENUE at LARMA AVENUE,st 2307,35.108493,-89.987961,,0,1:PARLAMEF,3
0:PARBRUEN,PARK AVENUE at BRUCE STREET,st 2308,35.108519,-89.986633,,0,1:PARBRUEN,3
0:HORTHISF,HORN LAKE ROAD at 3RD STREET,st 4901,35.03839,-90.069396,,0,1:HORTHISF,3
0:HORSHESM,HORN LAKE ROAD at SHELBY DRIVE,st 4904,35.024242,-90.06839,,0,1:HORSHESM,3
0:HORSHESN,HORN LAKE ROAD at SHELBY DRIVE,st 4905,35.021695,-90.068313,,0,1:HORSHESN,3
0:SCHALPSN,SCHOOLFIELD ROAD at ALPENA AVENUE,st 1667,35.225287,-89.969665,,0,1:SCHALPSN,3
0:SCHFRASM,SCHOOLFIELD ROAD at FRAYSER BOULEVARD,st 1668,35.221928,-89.969958,,0,1:SCHFRASM,3
0:REDFRANM,REDCOAT ROAD at FRAYSER RALEIGH ROAD,st 6914,35.221347,-89.960441,,0,1:REDFRANM,3
0:RANFRASF,RANGE LINE ROAD at FRAYSER BOULEVARD,st 1573,35.219931,-89.975666,,0,1:RANFRASF,3
0:RANORMSN,RANGE LINE ROAD at ORMAN AVENUE,st 1574,35.218367,-89.975679,,0,1:RANORMSN,3
0:NORWARWN,NORRIS ROAD at WARREN STREET,st 7115,35.083378,-90.016299,,0,1:NORWARWN,3
0:NORELVWF,NORRIS ROAD at ELVIS PRESLEY BOULEVARD,st 6538,35.083361,-90.018821,,0,1:NORELVWF,3
0:NORPRAWN,NORRIS ROAD at PRATT STREET,st 4806,35.083434,-90.021309,,0,1:NORPRAWN,3
0:NORROLWN,NORRIS ROAD at ROLLINS STREET,st 6110,35.083479,-90.023156,,0,1:NORROLWN,3
0:KNIDANEN,KNIGHT ARNOLD ROAD at DANVILLE ROAD,st 6902,35.062564,-89.916287,,0,1:KNIDANEN,3
0:KNIPEREM,KNIGHT ARNOLD ROAD at PERKINS ROAD,st 2789,35.062365,-89.907486,,0,1:KNIPEREM,3
0:PERKNISF,PERKINS ROAD at KNIGHT ARNOLD ROAD,st 6648,35.061371,-89.905996,,0,1:PERKNISF,3
0:PERSCOSM,PERKINS ROAD at SCOTTSDALE AVENUE,st 1868,35.058573,-89.906068,,0,1:PERSCOSM,3
0:MCLJAMEN,MCLEMORE AVENUE at JAMES STREET,st 4368,35.115286,-90.023059,,0,1:MCLJAMEN,3
0:THIGASSN,3RD STREET at GON AVENUE,st 4306,35.117743,-90.055266,,0,1:THIGASSN,3
0:GOOCHUNN,GOODLETT STREET at CHUCK AVENUE,st 2711,35.056986,-89.922213,,0,1:GOOCHUNN,3
0:GOOFORNN,GOODLETT STREET at FOREST VIEW DRIVE,st 2712,35.059229,-89.922142,,0,1:GOOFORNN,3
0:HORLEVSN,HORN LAKE ROAD at LEVI ROAD,st 4899,35.043047,-90.069617,,0,1:HORLEVSN,3
0:HORTHISN,HORN LAKE ROAD at 3RD STREET,st 4900,35.039686,-90.069274,,0,1:HORTHISN,3
0:POPSTOEN,POPLAR AVENUE at STONEWALL STREET,st 1892,35.143423,-90.010845,,0,1:POPSTOEN,3
0:POPCL1EN,POPLAR AVENUE at CLARK PLACE,st 1893,35.143297,-90.009285,,0,1:POPCL1EN,3
0:POPWILEN,POPLAR AVENUE at WILLET ROAD,st 1894,35.14318,-90.008012,,0,1:POPWILEN,3
0:POPANGEN,POPLAR AVENUE at ANGELUS STREET,st 1895,35.143009,-90.006042,,0,1:POPANGEN,3
0:POPEVEEN,POPLAR AVENUE at EVERGREEN STREET,st 1896,35.142784,-90.003264,,0,1:POPEVEEN,3
0:WINWI1EN,WINCHESTER ROAD at WINPLACE ROAD,st 1770,35.050531,-89.88894,,0,1:WINWI1EN,3
0:VOLBELWN,VOLLINTINE AVENUE at BELLEVUE BOULEVARD,st 3853,35.165526,-90.017836,,0,1:VOLBELWN,3
0:SYCSUMNM,SYCAMORE VIEW ROAD at SUMMER AVENUE,st 4041,35.169388,-89.865502,,0,1:SYCSUMNM,3
0:MACBILWN,MACON ROAD at BILTMORE STREET,st 3203,35.16124,-89.941164,,0,1:MACBILWN,3
0:MACGORWN,MACON ROAD at GORDON STREET,st 3204,35.161537,-89.942293,,0,1:MACGORWN,3
0:MACHIGWF,MACON ROAD at HIGHLAND STREET,st 3993,35.161932,-89.944407,,0,1:MACHIGWF,3
0:SPAWHISM,SPARKS STREET at WHITMORE ROAD,st 4686,35.079989,-90.012509,,0,1:SPAWHISM,3
0:SPAALCSN,SPARKS STREET at ALCY ROAD,st 4687,35.078103,-90.012444,,0,1:SPAALCSN,3
0:ALCPEREN,ALCY ROAD at PERRY ROAD,st 4688,35.077825,-90.011006,,0,1:ALCPEREN,3
0:ALCKEEEN,ALCY ROAD at KEEN ROAD,st 4689,35.077789,-90.009967,,0,1:ALCKEEEN,3
0:ALCROZEN,ALCY ROAD at ROZELLE STREET,st 4690,35.077698,-90.007501,,0,1:ALCROZEN,3
0:ALCMANEN,ALCY ROAD at MANCHESTER ROAD,st 4691,35.077644,-90.006052,,0,1:ALCMANEN,3
0:CONTROSB,CONVENTION CENTER at MAIN STREET,st 6177,35.151747,-90.050201,,0,1:CONTROSB,3
0:CIVTROSM,CIVIC CENTER at MAIN STREET,st 6178,35.149182,-90.051253,,0,1:CIVTROSM,3
0:JEFTROSN,JEFFERSON AVENUE at MAIN STREET,st 696,35.147243,-90.052017,,0,1:JEFTROSN,3
0:EASESTSN,EAST STREET at ESTIVAL PLACE,st 5716,35.132555,-90.031161,,0,1:EASESTSN,3
0:CRUDUDEN,CRUMP BOULEVARD at DUDLEY STREET,st 5728,35.131714,-90.029302,,0,1:CRUDUDEN,3
0:CRUCAMEN,CRUMP BOULEVARD at CAMILLA STREET,st 5729,35.131678,-90.027387,,0,1:CRUCAMEN,3
0:CRUSOMEF,CRUMP BOULEVARD at SOMERILLE STREET,st 5730,35.13132,-90.025717,,0,1:CRUSOMEF,3
0:LAMMINEN,LAMAR AVENUE at MINNA PL,st 5731,35.128896,-90.021624,,0,1:LAMMINEN,3
0:MACVICWN,MACON ROAD at VICTOR DRIVE,st 3981,35.162379,-89.928431,,0,1:MACVICWN,3
0:MACCHAWN,MACON ROAD at CHATWOOD STREET,st 3982,35.162425,-89.930158,,0,1:MACCHAWN,3
0:MACMARNW,MACON ROAD at MARIA STREET,st 6343,35.162445,-89.931265,,0,1:MACMARNW,3
0:LAUSTPNM,LAUDERDALE STREET at SAINT PAUL AVENUE,st 4453,35.130995,-90.044131,,0,1:LAUSTPNM,3
0:LAUSTPNF,LAUDERDALE STREET at SAINT PAUL AVENUE,st 6819,35.132255,-90.044009,,0,1:LAUSTPNF,3
0:PERPENEM,PERSON AVENUE at PENNSYLVANIA STREET,st 2250,35.101774,-90.068765,,0,1:PERPENEM,3
0:MALTHIEN,MALLORY AVENUE at SOUTH 3RD STREET,st 5005,35.086464,-90.057042,,0,1:MALTHIEN,3
0:MALLATEF,MALLORY AVENUE at LATHAM STREET,st 7061,35.086374,-90.051755,,0,1:MALLATEF,3
0:MULTHRNN,MULLINS STATION RD at THRUSHCROSS DRIVE,st 4029,35.157848,-89.850677,,0,1:MULTHRNN,3
0:MULOAKNN,MULLINS STATION ROAD at OAK PARK DRIVE,st 4030,35.159569,-89.850556,,0,1:MULOAKNN,3
0:POPSCOWN,POPLAR AVENUE at SCOTT STREET,st 2055,35.135369,-89.96862,,0,1:POPSCOWN,3
0:POPCO1WN,POPLAR AVENUE at COLLINS STREET,st 2056,35.137071,-89.973266,,0,1:POPCO1WN,3
0:POPBINWN,POPLAR AVENUE at BINGHAM STREET,st 2057,35.137724,-89.974959,,0,1:POPBINWN,3
0:POPMERWN,POPLAR AVENUE at MERTON STREET,st 2058,35.138172,-89.97622,,0,1:POPMERWN,3
0:SUMHIGWN,SUMMER AVENUE at HIGH POINT TERR,st 4074,35.149395,-89.937166,,0,1:SUMHIGWN,3
0:PERWALNM,PERKINS ROAD at WALNUT GROVE ROAD,st 3149,35.130056,-89.90866,,0,1:PERWALNM,3
0:WARWALNF,WARING ROAD at WALNUT GROVE ROAD,st 1097,35.131568,-89.916437,,0,1:WARWALNF,3
0:WARNORNN,WARING ROAD at NORMANDY ROAD,st 1098,35.134231,-89.916299,,0,1:WARNORNN,3
0:WARBARNN,WARING ROAD at BARFIELD ROAD,st 1099,35.135553,-89.916263,,0,1:WARBARNN,3
0:WARCHINN,WARING ROAD at CHICKASAW ROAD,st 1100,35.139503,-89.916133,,0,1:WARCHINN,3
0:BROFLEEN,BROOKS ROAD at FLEETBROOK DRIVE,st 5292,35.061648,-90.031926,,0,1:BROFLEEN,3
0:CENTARWF,CENTRAL AVENUE at TARA LANE,st 3521,35.123765,-89.964298,,0,1:CENTARWF,3
0:WALTILWM,WALNUT GROVE ROAD at TILLMAN STREET,st 2990,35.135362,-89.961239,,0,1:WALTILWM,3
0:WALHAYWM,WALNUT GROVE ROAD at HAYDEN STREET,st 2989,35.134243,-89.959237,,0,1:WALHAYWM,3
0:WALEASWM,WALNUT GROVE ROAD at EVIEW DRIVE,st 2988,35.133731,-89.956372,,0,1:WALEASWM,3
0:POPOA1WN,POPLAR AVENUE at OAK HILL ROAD,st 2004,35.097803,-89.834539,,0,1:POPOA1WN,3
0:POPRANWN,POPLAR AVENUE at RANDOLPH PLACE,st 2007,35.098746,-89.841726,,0,1:POPRANWN,3
0:MALWALEF,MALLORY AVENUE at WELLINGTON STREET,st 7062,35.086284,-90.047021,,0,1:MALWALEF,3
0:NORWAREF,NORRIS ROAD at WARREN STREET,st 7111,35.083217,-90.015924,,0,1:NORWAREF,3
0:BALSILEN,BALL ROAD at SILVER STREET,st 7112,35.082,-90.013425,,0,1:BALSILEN,3
0:COVELMNF,COVINGTON PIKE at ELMORE ROAD,st 1121,35.186106,-89.89615,,0,1:COVELMNF,3
0:COVCHINN,COVINGTON PIKE at CHISWOOD STREET,st 1122,35.190511,-89.895731,,0,1:COVCHINN,3
0:RALBATNF,RALEIGH LAGRANGE RD at BATTLE CREEEK DR,st 1124,35.195343,-89.900039,,0,1:RALBATNF,3
0:MADDUNWN,MADISON AVENUE at DUNLAP STREET,st 502 (no 1014),35.140545,-90.03244,,0,1:504,3
0:BASSPRO,BASS PRO SHOPS,st 6536 (no 824),35.156707,-90.050499,,0,1:BASSPRO,3
0:CENTRSTA,CENTRAL STATION,st 7118 (no 1161),35.131935,-90.059026,,0,1:681,3
0:WHTCTRLY,WILLIAM HUDSON TRANSIT CENTER,st 505 (no 851),35.1571,-90.048019,,0,1:WHTC,3
0:UNIDANWN,UNION AVENUE at DANNY THOMAS BOULEVARD,st 3022 (no 1061),35.140977,-90.044991,,0,1:3022,3
0:UNIWALWM,UNION AVENUE at WALDRAN BOULEVARD,st 3013 (no 1060),35.137503,-90.022459,,0,1:3013,3
0:UNIMCLWF,UNION AVENUE at MCLEAN BOULEVARD,st 3003 (no 1059),35.135329,-90.000681,,0,1:3003,3
0:RALBARWF,RALEIGH LAGRANGE ROAD at BARTLETT ROAD,st 7077,35.184732,-89.880074,,0,1:RALBARWF,3
0:LAMSOUEN,LAMAR AVENUE at SOUTHWALL STREET,st 5761,35.08808,-89.96438,,0,1:LAMSOUEN,3
0:LAMSEMEM,LAMAR AVENUE at SEMMES STREET,st 5762,35.087069,-89.963552,,0,1:LAMSEMEM,3
0:LAMSEMEF,LAMAR AVENUE at SEMMES STREET,st 5763,35.085468,-89.961962,,0,1:LAMSEMEF,3
0:LAMRKSEN,LAMAR AVENUE at RKS COMMERCIAL COVE,st 5764,35.08443,-89.960714,,0,1:LAMRKSEN,3
0:LAMJOHEN,LAMAR AVENUE at JOHN PAUL DRIVE,st 5765,35.083499,-89.959609,,0,1:LAMJOHEN,3
0:LAMLOWEN,LAMAR AVENUE at LOWELL AVENUE,st 5756,35.096192,-89.971316,,0,1:LAMLOWEN,3
0:PARKELWN,PARK AVENUE at KELLEY ROAD,st 2160,35.107692,-89.934052,,0,1:PARKELWN,3
0:PARGOOWF,PARK AVENUE at GOODMAN STREET,st 2161,35.10773,-89.936243,,0,1:PARGOOWF,3
0:PARECHWN,PARK AVENUE at ECHLES STREET,st 2162,35.107787,-89.938477,,0,1:PARECHWN,3
0:PARPATWN,PARK AVENUE at PATTERSON STREET,st 2163,35.10787,-89.941508,,0,1:PARPATWN,3
0:PARHIGWM,PARK AVENUE at HIGHLAND STREET,st 2164,35.107935,-89.943522,,0,1:PARHIGWM,3
0:PARHI1WM,PARK AVENUE at HIGHLAND STREET,st 2165,35.107973,-89.94517,,0,1:PARHI1WM,3
0:CRUHOLNF,CRUMPLER ROAD at HOLMES STREET,st 2532,35.006514,-89.84852,,0,1:CRUHOLNF,3
0:MARALISF,MARJORIE STREET at ALIDA AVENUE,st 4744,35.098301,-90.034319,,0,1:MARALISF,3
0:MARWOOSN,MARJORIE STREET at WOODLAND AVENUE,st 4745,35.097407,-90.033003,,0,1:MARWOOSN,3
0:MARGAISF,MARJORIE STREET at GAITHER COVE,st 6594,35.096477,-90.031665,,0,1:MARGAISF,3
0:MARNORSN,MARJORIE STREET at NORFOLK STREET,st 4746,35.095949,-90.030891,,0,1:MARNORSN,3
0:SPRELDSN,SPRINGDALE STREET at ELDRIDGE AVENUE,st 4532,35.171011,-89.983853,,0,1:SPRELDSN,3
0:SPRHUNSN,SPRINGDALE STREET at HUNTER AVENUE,st 4533,35.169885,-89.983887,,0,1:SPRHUNSN,3
0:SPRHOWSN,SPRINGDALE STREET at HOWELL AVENUE,st 4534,35.167356,-89.983979,,0,1:SPRHOWSN,3
0:SPRBERSN,SPRINGDALE STREET at BERKELEY AVENUE,st 4536,35.16497,-89.984103,,0,1:SPRBERSN,3
0:SPRALBSN,SPRINGDALE STREET at ALBANY AVENUE,st 4537,35.163317,-89.984171,,0,1:SPRALBSN,3
0:SPRVOLSN,SPRINGDALE STREET at VOLLINTINE AVENUE,st 4538,35.162531,-89.984205,,0,1:SPRVOLSN,3
0:VOLHALWM,VOLLINTINE AVENUE at HALLWOOD DRIVE,st 4539,35.16221,-89.9858,,0,1:VOLHALWM,3
0:VOLHALWN,VOLLINTINE AVENUE at HALLWOOD DRIVE,st 4540,35.162408,-89.986973,,0,1:VOLHALWN,3
0:VOLUNIWF,VOLLINTINE AVENUE at UNIVERSITY STREET,st 4542,35.162857,-89.991434,,0,1:VOLUNIWF,3
0:CENGRAWN,CENTRAL AVENUE at GRANDVIEW STREET,st 3466,35.12281,-89.93106,,0,1:CENGRAWN,3
0:SHEMACWN,SHELBY DRIVE at MARTHA COLE LANE,st 7241,35.020883,-89.959312,,0,1:SHEMACWN,3
0:SHETCHWF,SHELBY DRIVE at TCHULAHOMA ROAD,st 7240,35.020852,-89.954925,,0,1:SHETCHWF,3
0:SHESUGWF,SHELBY DRIVE at SUGAR CREEK ROAD,st 2434,35.020824,-89.948323,,0,1:SHESUGWF,3
0:SHEDISWF,SHELBY DRIVE at DISTRIPLEX DRIVE WEST,st 2432,35.020781,-89.941032,,0,1:SHEDISWF,3
0:SHEMENWF,SHELBY DRIVE at MENDENHALL ROAD,st 6493,35.020541,-89.880557,,0,1:SHEMENWF,3
0:ELLROBEF,ELLISTON ROAD at ROBIN HOOD LANE,st 4191,35.086821,-89.938922,,0,1:ELLROBEF,3
0:ELLGREEM,ELLISTON ROAD at GREEN DOLPHIN STREET,st 4192,35.086819,-89.937131,,0,1:ELLGREEM,3
0:RAIWINEN,RAINES ROAD at WINDWARD DRIVE,st 5437,35.034564,-90.051955,,0,1:RAIWINEN,3
0:RAIHODEN,RAINES ROAD at HODGE ROAD,st 5438,35.034615,-90.050136,,0,1:RAIHODEN,3
0:HODDRESN,HODGE ROAD at DREGER ROAD,st 5439,35.032972,-90.049822,,0,1:HODDRESN,3
0:HODSHOSN,HODGE ROAD at SHOFNER AVENUE,st 5440,35.032093,-90.04974,,0,1:HODSHOSN,3
0:POPPE1EN,POPLAR AVENUE at PERKINS ROAD,st 1938,35.11613,-89.906919,,0,1:POPPE1EN,3
0:AUSSTASN,AUSTIN PEAY HWY at STAGE ROAD,st 1156,35.205703,-89.921672,,0,1:AUSSTASN,3
0:MACLOREN,MACON ROAD at LORRAINE STREET,st 1113,35.161888,-89.914616,,0,1:MACLOREN,3
0:MACPALEF,MACON ROAD at PALLWOOD ROAD,st 1114,35.161841,-89.913055,,0,1:MACPALEF,3
0:MACBEREN,MACON ROAD at BERCLAIR ROAD,st 1115,35.161839,-89.911439,,0,1:MACBEREN,3
0:JEFFOUEN,JEFFERSON AVENUE at 4TH STREET,st 846,35.145723,-90.046948,,0,1:JEFFOUEN,3
0:JEFHAMEM,JEFFERSON AVENUE at HAMLIN PLACE,st 848,35.143791,-90.039854,,0,1:JEFHAMEM,3
0:JEFORLEF,JEFFERSON AVENUE at ORLEANS STREET,st 850,35.143111,-90.037066,,0,1:JEFORLEF,3
0:JEFDUNEN,JEFFERSON AVENUE at DUNLAP STREET,st 852,35.142547,-90.033402,,0,1:JEFDUNEN,3
0:PAUEASSF,PAULINE STREET at EASTMORELAND AVENUE,st 4393,35.135905,-90.028359,,0,1:PAUEASSF,3
0:PAUVANSN,PAULINE STREET at VANCE AVENUE,st 6881,35.133725,-90.028438,,0,1:PAUVANSN,3
0:LAMLOWEF,LAMAR AVENUE at LOWELL AVENUE,st 115,35.095905,-89.971006,,0,1:LAMLOWEF,3
0:LAMPEAEM,LAMAR AVENUE at PEARSON ROAD,st 5766,35.074838,-89.949315,,0,1:LAMPEAEM,3
0:LAMPEANN,LAMAR AVENUE at PEARSON ROAD,st 5768,35.073255,-89.947891,,0,1:LAMPEANN,3
0:LAMDEMEM,LAMAR AVENUE at DEMOCRAT ROAD,st 5770,35.069498,-89.945089,,0,1:LAMDEMEM,3
0:ELMRALWF,ELMORE ROAD at RALEIGH LAGRANGE ROAD,st 7079,35.186476,-89.886814,,0,1:ELMRALWF,3
0:ELMCOVWN,ELMORE ROAD at COVINGTON WAY,st 7080,35.185449,-89.893095,,0,1:ELMCOVWN,3
0:COVELMSF,COVINGTON PIKE at ELMORE ROAD,st 1079,35.185285,-89.896462,,0,1:COVELMSF,3
0:COVCOVSF,COVINGTON PIKE at COVINGTON WAY,st 1080,35.182237,-89.896514,,0,1:COVCOVSF,3
0:COVMCCSN,COVINGTON PIKE at MCCRORY AVENUE,st 1083,35.161224,-89.906004,,0,1:COVMCCSN,3
0:COMWATEM,COMANCHE ROAD at WATSON STREET,st 2724,35.069081,-89.931096,,0,1:COMWATEM,3
0:COTCLAEN,COTTONWOOD ROAD at CLAUDETTE ROAD,st 2725,35.068939,-89.925507,,0,1:COTCLAEN,3
0:OUTWINNN,OUTLAND ROAD at WINCHESTER ROAD,st 1834,35.050586,-89.901674,,0,1:OUTWINNN,3
0:POPPEREF,POPLAR AVENUE at S PERKINS ROAD,st 1939 (no 1153),35.11578,-89.906068,,0,1:5511,3
0:STAWALEN,STAGE ROAD at WALMART DRIVE,st 1040,35.204132,-89.782605,,0,1:STAWALEN,3
0:STANEWEM,STAGE ROAD at NEW BRUNSWICK ROAD,st 1041,35.204134,-89.77977,,0,1:STANEWEM,3
0:STABRUEN,STAGE ROAD at NEW BRUNSWICK ROAD,st 6167,35.204175,-89.778141,,0,1:STABRUEN,3
0:MENTUTNN,MENDENHALL ROAD at TUTWILER AVENUE,st 3107,35.150193,-89.897759,,0,1:MENTUTNN,3
0:MENDURNM,MENDENHALL ROAD at DURBIN AVENUE,st 3109,35.155233,-89.897604,,0,1:MENDURNM,3
0:MENMACNM,MENDENHALL ROAD at MACON ROAD,st 3110,35.157798,-89.89751,,0,1:MENMACNM,3
0:MCCGARWN,MCCRORY AVENUE at GARY STREET,st 3949,35.160196,-89.900095,,0,1:MCCGARWN,3
0:WALCAMEN,WALDORF AVENUE at CAMERON STREET,st 5080,35.105365,-90.049405,,0,1:WALCAMEN,3
0:VOLANNEN,VOLLINTINE AVENUE at ANNIE STREET,st 3858,35.165294,-90.017194,,0,1:VOLANNEN,3
0:VOLALMEM,VOLLINTINE AVENUE at ALMA STREET,st 3859,35.165096,-90.015257,,0,1:VOLALMEM,3
0:VOLMCNEN,VOLLINTINE AVENUE at NORTH MCNEIL STREET,st 4553,35.164414,-90.008471,,0,1:VOLMCNEN,3
0:WINKIRWF,WINCHESTER ROAD at KIRBY ROAD,st 1806,35.049623,-89.844403,,0,1:WINKIRWF,3
0:WINFIRWF,WINCHESTER ROAD at FIR LANE,st 1807,35.049744,-89.851566,,0,1:WINFIRWF,3
0:WINFANEN,WINCHESTER ROAD at FANN ROAD,st 1777,35.050107,-89.869849,,0,1:WINFANEN,3
0:WINHICEN,WINCHESTER ROAD at HICKORY HILL ROAD,st 1778,35.050004,-89.86692,,0,1:WINHICEN,3
0:GETKNISN,GETWELL ROAD at KNIGHT ARNOLD ROAD,st 2660,35.065069,-89.93279,,0,1:GETKNISN,3
0:KNIOLDWN,KNIGHT ARNOLD ROAD at OLD GETWELL ROAD,st 2739,35.065052,-89.933453,,0,1:KNIOLDWN,3
0:LAMDEMWF,LAMAR AVENUE at DEMOCRAT ROAD,st 5676,35.069587,-89.944912,,0,1:LAMDEMWF,3
0:LAMPEAWN,LAMAR AVENUE at PEARSON ROAD,st 5677,35.072297,-89.946942,,0,1:LAMPEAWN,3
0:LAMAMEWM,LAMAR AVENUE at AMERICAN WAY,st 5678,35.07414,-89.948376,,0,1:LAMAMEWM,3
0:LAMJOHWN,LAMAR AVENUE at JOHN PAUL DRIVE,st 5680,35.082864,-89.95867,,0,1:LAMJOHWN,3
0:LAMSHUWM,LAMAR AVENUE at SHULTZ AVENUE,st 5682,35.089233,-89.96502,,0,1:LAMSHUWM,3
0:LAMFILWN,LAMAR AVENUE at FILMORE AVENUE,st 5683,35.092176,-89.967461,,0,1:LAMFILWN,3
0:LAMKIMWM,LAMAR AVENUE at KIMBALL AVENUE,st 5684,35.093607,-89.968764,,0,1:LAMKIMWM,3
0:LAMKIMWN,LAMAR AVENUE at KIMBALL AVENUE,st 5685,35.094465,-89.969526,,0,1:LAMKIMWN,3
0:LAMLOWWF,LAMAR AVENUE at LOWELL AVENUE,st 5686,35.096379,-89.971227,,0,1:LAMLOWWF,3
0:QUIFLAWN,QUINCE ROAD at FLAMINGO ROAD,st 3155,35.093957,-89.913017,,0,1:QUIFLAWN,3
0:PARPRIEM,PARK AVENUE at PRIMACY PARKWAY,st 2361,35.099835,-89.865118,,0,1:PARPRIEM,3
0:PARPRIEN,PARK AVENUE at PRIMACY PARKWAY,st 2362,35.099878,-89.863835,,0,1:PARPRIEN,3
0:PRIPARSF,PRIMACY PARKWAY at PARK AVENUE,st 6150,35.097874,-89.862778,,0,1:PRIPARSF,3
0:RAIFRIEF,RAINES ROAD at FRIENDLY WAY,st 7214,35.034895,-89.849453,,0,1:RAIFRIEF,3
0:WINRIVEN,WINCHESTER ROAD at RIVERDALE ROAD,st 1787,35.04916,-89.831404,,0,1:WINRIVEN,3
0:WINRIDWM,WINCHESTER ROAD at RIDGEWAY ROAD,st 1808,35.049812,-89.854672,,0,1:WINRIDWM,3
0:WINLICWN,WINCHESTER ROAD at LICHTERMAN ROAD,st 1811,35.050061,-89.863957,,0,1:WINLICWN,3
0:WINHICWN,WINCHESTER ROAD at HICKORY HILL ROAD,st 1812,35.050146,-89.86629,,0,1:WINHICWN,3
0:TCHSHESF,TCHULAHOMA ROAD at SHELBY DRIVE,st 202,35.020199,-89.954694,,0,1:TCHSHESF,3
0:HOLMELEM,HOLMES ROAD at TCHULAHOMA ROAD,st 6864,35.006083,-89.9515,,0,1:HOLMELEM,3
0:HOLMELEF,HOLMES ROAD at MELTECH BOULEVARD,st 6865,35.006051,-89.946528,,0,1:HOLMELEF,3
0:WINPLOWM,WINCHESTER ROAD at PLOUGH BOULEVARD,st 1699,35.052184,-89.982327,,0,1:WINPLOWM,3
0:SPAELVEF,SOUTH PARKWAY EAST at ELVIS PRESLEY BLVD,st 2294,35.109405,-90.021625,,0,1:SPAELVEF,3
0:BRODOGWF,BROOKS ROAD at DOGWOOD LANE,st 5253,35.061837,-90.033474,,0,1:BRODOGWF,3
0:BROLAKWN,BROOKS ROAD at LAKEVIEW ROAD,st 5254,35.061891,-90.035641,,0,1:BROLAKWN,3
0:POPCLEEF,POPLAR AVENUE at CLEVELAND STREET,st 332 (no 148),35.143827,-90.015206,,0,1:5508,3
0:CHEBREWN,CHELSEA AVENUE at BREEDLOVE STREET,st 1610 (no 39),35.16951,-90.021403,,0,1:802,3
0:CHEHO1WF,CHELSEA AVENUE at HOLLYWOOD STREET,st 4530 (no 41),35.174696,-89.975788,,0,1:804,3
0:FRAOVEWF,FRAYSER PLAZA,st 1259 (no 852),35.217353,-89.994314,,0,1:4218,3
0:TCHMORNN,TCHULAHOMA ROAD at MORNINGVIEW DRIVE,st 6867 (no 1102),35.011181,-89.954453,,0,1:6863,3
0:1006,WATKINS STREET at LEVEE ROAD,st 111 (no 49),35.175968,-90.008462,,0,1:1006,3
0:PARGOOEM,PARK AVENUE at GOODLETT STREET,st 2338 (no 1065),35.107297,-89.924782,,0,1:2157,3
0:TCHMORSN,TCHULAHOMA ROAD at MORNINGVIEW DRIVE,st 6863 (no 1102),35.011378,-89.954663,,0,1:6863,3
0:COTGOOEN,COTTONWOOD ROAD at GOODLETT STREET,st 2726,35.069462,-89.921702,,0,1:COTGOOEN,3
0:GOOARRSM,GOODLETT STREET at ARROWOOD AVENUE,st 2701,35.066092,-89.921477,,0,1:GOOARRSM,3
0:PARFAIEN,PARK AVENUE at FAIR MEADOW ROAD,st 2344,35.106967,-89.911441,,0,1:PARFAIEN,3
0:PARPEREN,PARK AVENUE at PERKINS ROAD,st 2345,35.106911,-89.90966,,0,1:PARPEREN,3
0:PARCROEM,PARK AVENUE at CROSSOVER LANE,st 2346,35.106798,-89.905534,,0,1:PARCROEM,3
0:PARCOLEN,PARK AVENUE at COLONIAL ROAD,st 2347,35.106741,-89.903399,,0,1:PARCOLEN,3
0:PARIVYEN,PARK AVENUE at IVY ROAD,st 2348,35.106637,-89.89956,,0,1:PARIVYEN,3
0:COVAU1NM,COVINGTON PIKE at AUSTIN PEAY HWY,st 1145,35.233491,-89.893605,,0,1:COVAU1NM,3
0:COVAUSNM,COVINGTON PIKE at AUSTIN PEAY HWY,st 1144,35.231309,-89.892369,,0,1:COVAUSNM,3
0:COVBANSF,COVINGTON PIKE at BANBURY AVENUE,st 141,35.226386,-89.8934,,0,1:COVBANSF,3
0:GETRHONF,GETWELL ROAD at RHODES AVENUE,st 387,35.099904,-89.930747,,0,1:GETRHONF,3
0:GETMCENF,GETWELL ROAD at MCEVERS ROAD,st 200,35.101468,-89.930734,,0,1:GETMCENF,3
0:CHEWI1WM,CHELSEA AVENUE at WILLETT STREET,st 1601,35.172938,-90.004496,,0,1:CHEWI1WM,3
0:THOWHISN,THOMAS STREET at WHITNEY AVENUE,st 6547 (no 61),35.210017,-90.032772,,0,1:1101,3
0:YALRALWF,YALE ROAD at RALEIGH MILLINGTON ROAD,st 1241 (no 1036),35.220948,-89.929409,,0,1:1241,3
0:FRARALEN,YALE ROAD at RALEIGH MILLINGTON ROAD,st 1399 (no 1036),35.220697,-89.928911,,0,1:1241,3
0:VRCNALEN,VICTORY RIDGE COVE at NEW ALLEN ROAD,st 7024 (no 1144),35.23222,-89.955454,,0,1:6201,3
0:THOWHINF,THOMAS STREET at WHITNEY AVENUE,st 6546 (no 61),35.210428,-90.032351,,0,1:1101,3
0:PERJUDNF,PERKINS ROAD at JUDY LYNN AVENUE,st 5671,35.072233,-89.905354,,0,1:PERJUDNF,3
0:AMWMALWF,AMERICAN WAY at MALL ROAD,st 2642,35.072959,-89.909665,,0,1:AMWMALWF,3
0:AMWCONWM,AMERICAN WAY at CONNECTING ROAD,st 2643,35.071953,-89.913139,,0,1:AMWCONWM,3
0:AMECHEWN,AMERICAN WAY at CHERRY ROAD,st 2644,35.073632,-89.918587,,0,1:AMECHEWN,3
0:BROROCWN,BROOKS ROAD at ROCHESTER ROAD,st 5269,35.06337,-90.073984,,0,1:BROROCWN,3
0:NCOSCHSF,NEW COVINGTON PIKE at SCHEIBLER ROAD,st 6912,35.223546,-89.894215,,0,1:NCOSCHSF,3
0:JACMCCEF,JACKSON AVENUE at MCCONNELL STREET,st 3915,35.157807,-89.977956,,0,1:JACMCCEF,3
0:BROGILWN,BROOKS ROAD at GILL ROAD,st 5260,35.063129,-90.056448,,0,1:BROGILWN,3
0:BROSOUEF,BROOKS ROAD at SOUTH CENTER ROAD,st 5285,35.062887,-90.0528,,0,1:BROSOUEF,3
0:BROTULEM,BROOKS ROAD at TULANE ROAD,st 5286,35.062815,-90.05008,,0,1:BROTULEM,3
0:BROTRAEN,BROOKS ROAD at TRANQUILITY DRIVE,st 5287,35.062707,-90.048665,,0,1:BROTRAEN,3
0:BROGRAEM,BROOKS ROAD at GRAVES ROAD,st 5289,35.061902,-90.042617,,0,1:BROGRAEM,3
0:BROGILWF,BROOKS ROAD at GILL ROAD,st 5261,35.063245,-90.057764,,0,1:BROGILWF,3
0:BROLAKEN,BROOKS ROAD at LAKEVIEW ROAD,st 5290,35.061757,-90.036636,,0,1:BROLAKEN,3
0:THIGAYNM,3RD STREET at GAYOSO AVENUE,st 634,35.141049,-90.051577,,0,1:THIGAYNM,3
0:CHECHESN,CHERRY ROAD at CHERRY CENTER DRIVE,st 2719,35.073384,-89.920202,,0,1:CHECHESN,3
0:GOOCOTSN,GOODLETT STREET at COTTONWOOD ROAD,st 2720,35.069864,-89.921315,,0,1:GOOCOTSN,3
0:GOOKNISN,GOODLETT STREET at KNIGHT ARNOLD ROAD,st 2702,35.064859,-89.921545,,0,1:GOOKNISN,3
0:GOOSHESN,GOODLETT STREET at SHEFFIELD AVENUE,st 2703,35.063313,-89.92157,,0,1:GOOSHESN,3
0:GOOCAMSF,GOODLETT STREET at CAMELOT AVENUE,st 2704,35.061902,-89.922214,,0,1:GOOCAMSF,3
0:GOOFORSN,GOODLETT STREET at FOREST VIEW DRIVE,st 2705,35.059569,-89.922329,,0,1:GOOFORSN,3
0:VOLNEVEF,VOLLINTINE AVENUE at N EVERGREEN STREET,st 4557,35.163614,-90.000379,,0,1:VOLNEVEF,3
0:NPAHAWWN,NORTH PARKWAY at HAWTHORNE STREET,st 3543,35.152889,-89.999426,,0,1:NPAHAWWN,3
0:NPAEVEWN,NORTH PARKWAY at EVERGREEN STREET,st 3544,35.153123,-90.001805,,0,1:NPAEVEWN,3
0:NPKSTOWN,NORTH PARKWAY at STONEWALL STREET,st 6674,35.153671,-90.007417,,0,1:NPKSTOWN,3
0:CLEAUTSF,CLEVELAND STREET at AUTUMN AVENUE,st 6555,35.150413,-90.01426,,0,1:CLEAUTSF,3
0:OVECLAWN,OVERTON PARK AVENUE at CLAYBROOK STREET,st 6556,35.149645,-90.015954,,0,1:OVECLAWN,3
0:OVEMONWN,OVERTON PARK AVENUE at MONTGOMERY STREET,st 6557,35.149852,-90.018257,,0,1:OVEMONWN,3
0:OVEBELWN,OVERTON PARK AVENUE at BELLEVUE BLVD,st 6558,35.150049,-90.020116,,0,1:OVEBELWN,3
0:BELAUTNN,BELLEVUE BOULEVARD at AUTUMN AVENUE,st 6559,35.151291,-90.019938,,0,1:BELAUTNN,3
0:POPMCNWF,POPLAR AVENUE at MCNEIL BOULEVARD,st 2076,35.143718,-90.012251,,0,1:POPMCNWF,3
0:POPCLAWN,POPLAR AVENUE at CLAYBROOK STREET,st 2079,35.14414,-90.016755,,0,1:POPCLAWN,3
0:POPCLAWF,POPLAR AVENUE at CLAYBROOK STREET,st 2080,35.144257,-90.018227,,0,1:POPCLAWF,3
0:OVEHILNN,OVERTON CROSSING ST at HILLSIDE AVENUE,st 1468,35.234152,-89.993423,,0,1:OVEHILNN,3
0:OVEWELNF,OVERTON CROSSING ST at WELLONS AVENUE,st 1469,35.236207,-89.993354,,0,1:OVEWELNF,3
0:OVESHANN,OVERTON CROSSING STREET at SHARON LANE,st 1470,35.237878,-89.993297,,0,1:OVESHANN,3
0:PAUEASNN,PAULINE STREET at EASTMORELAND AVENUE,st 4396,35.135888,-90.02816,,0,1:PAUEASNN,3
0:PAUUNINM,PAULINE STREET at UNION AVENUE,st 4397,35.136915,-90.028126,,0,1:PAUUNINM,3
0:PERSEASN,PERKINS ROAD at SEA ISLE ROAD,st 3133,35.09385,-89.906977,,0,1:PERSEASN,3
0:PERQUISN,PERKINS ROAD at QUINCE ROAD,st 3134,35.091598,-89.907049,,0,1:PERQUISN,3
0:PERDUNSN,PERKINS ROAD at DUNN AVENUE,st 2796,35.090535,-89.907095,,0,1:PERDUNSN,3
0:THIPEESN,3RD STREET at PEEBLES ROAD,st 5007,35.068813,-90.058681,,0,1:THIPEESN,3
0:BROMEAWM,BROOKS ROAD at MEADOWBROOK ROAD,st 5263,35.063272,-90.062474,,0,1:BROMEAWM,3
0:BROREDWN,BROOKS ROAD at REDBUD ROAD,st 5265,35.063335,-90.066952,,0,1:BROREDWN,3
0:BRONEWWN,BROOKS ROAD at NEW HORN LAKE ROAD,st 5266,35.063388,-90.068843,,0,1:BRONEWWN,3
0:BROOLDWN,BROOKS ROAD at OLD HORN LAKE ROAD,st 5267,35.063442,-90.070125,,0,1:BROOLDWN,3
0:HORHONSN,HORN LAKE ROAD at HONDURAS COVE,st 4935,35.014829,-90.068286,,0,1:HORHONSN,3
0:HORVANSN,HORN LAKE ROAD at VAN HUESEN DRIVE,st 4936,35.011131,-90.068258,,0,1:HORVANSN,3
0:HORHOLSN,HORN LAKE ROAD at HOLMES ROAD,st 4937,35.006721,-90.068218,,0,1:HORHOLSN,3
0:HOLATKWN,WEST HOLMES ROAD at ATKINS DRIVE,st 7018,35.00642,-90.071826,,0,1:HOLATKWN,3
0:THIRAISF,3RD STREET at RAINES ROAD,st 5024,35.034681,-90.07406,,0,1:THIRAISF,3
0:SUMSEVWN,SUMMER AVENUE at SEVIER STREET,st 4077,35.149497,-89.940852,,0,1:SUMSEVWN,3
0:SUMNHIWN,SUMMER AVENUE at NHIGHLAND STREET,st 4078,35.149563,-89.943785,,0,1:SUMNHIWN,3
0:AIRRILNN,AIRWAYS BOULEVARD at RILEY AVENUE,st 5331,35.103934,-89.986063,,0,1:AIRRILNN,3
0:AIRLAMNF,AIRWAYS BOULEVARD at LARMA AVENUE,st 3336,35.105649,-89.985397,,0,1:AIRLAMNF,3
0:AIRPRONN,AIRWAYS BOULEVARD at PROGRESS AVENUE,st 3337,35.106855,-89.984964,,0,1:AIRPRONN,3
0:HORCROSM,HORN LAKE ROAD at CROSS VILLAGE,st 4897,35.051037,-90.06902,,0,1:HORCROSM,3
0:SPKBELEF,SOUTH PARKWAY EAST at BELLEVUE BOI;EVARD,st 277,35.109405,-90.02147,,0,1:SPKBELEF,3
0:SPADUNEN,SOUTH PARKWAY EAST at DUNNAVANT STREET,st 2296,35.109215,-90.015706,,0,1:SPADUNEN,3
0:SPAPILEF,SOUTH PARKWAY EAST at PILLOW STREET,st 2297,35.109161,-90.014611,,0,1:SPAPILEF,3
0:SPASILEN,SOUTH PARKWAY EAST at SILVER STREET,st 2298,35.109106,-90.012531,,0,1:SPASILEN,3
0:SPAWILEF,SOUTH PARKWAY EAST at WILLETT STREET,st 2299,35.109051,-90.010429,,0,1:SPAWILEF,3
0:HODWHISN,HODGE ROAD at WHITEVILLE AVENUE,st 5443,35.02693,-90.048995,,0,1:HODWHISN,3
0:HODSTOSN,HODGE ROAD at STONEHAM ROAD,st 5444,35.024812,-90.048841,,0,1:HODSTOSN,3
0:HODBERSF,HODGE ROAD at BERTA ROAD,st 5445,35.023471,-90.048841,,0,1:HODBERSF,3
0:HODSHESN,HODGE ROAD at SHELBY DRIVE,st 5446,35.021344,-90.049627,,0,1:HODSHESN,3
0:SHEHODEF,SHELBY DRIVE at HODGE ROAD,st 5518,35.020719,-90.048732,,0,1:SHEHODEF,3
0:SHEBEREN,SHELBY DRIVE at BERTA ROAD,st 5519,35.020772,-90.045637,,0,1:SHEBEREN,3
0:PERHELSN,PERKINS ROAD at HELENE ROAD,st 2797,35.088667,-89.907176,,0,1:PERHELSN,3
0:MACSALWN,MACON ROAD at SALEM ROAD,st 6344,35.162474,-89.93359,,0,1:MACSALWN,3
0:SHECR1WM,SHELBY DRIVE at CRUMP BOULEVARD,st 2416,35.020475,-89.857678,,0,1:SHECR1WM,3
0:SHEHICWM,SHELBY DRIVE at HICKORY HILL ROAD,st 2417,35.020472,-89.862265,,0,1:SHEHICWM,3
0:WINHICOB,HICKORY RIDGE MALL,st 404 (no 43),35.049805,-89.860785,,0,1:3600,3
0:AMEPEREN,AMERICAN WAY at S PERKINS ROAD,st 2675 (no 189),35.07375,-89.906412,,0,1:6902,3
0:KNIJULEM,KNIGHT ARNOLD ROAD at JULIUS LEWIS DRIVE,st 2783 (no 45),35.065086,-89.939523,,0,1:3602,3
0:VANLAUWN,LAUDERDALE STREET at VANCE AVENUE,st 789 (no 29),35.13473,-90.043576,,0,1:404,3
0:3402IB,WALNUT GROVE ROAD at PERKINS EXT,st 253 (no 117),35.131147,-89.908857,,0,1:3402,3
0:HUMHUMSF,HUMPHREYS BOULEVARD at WALNUT GROVE ROAD,st 6393 (no 118),35.12657,-89.852543,,0,1:3400,3
0:WALPEREF,WALNUT GROVE ROAD at PERKINS EXT,st 3078 (no 117),35.131002,-89.907917,,0,1:3402,3
0:WINGETEN,WINCHESTER ROAD at OLD GETWELL ROAD,st 1762,35.051838,-89.937545,,0,1:WINGETEN,3
0:WINGETEF,WINCHESTER ROAD at OLD GETWELL ROAD,st 1763,35.051747,-89.936141,,0,1:WINGETEF,3
0:WINAIREF,WINCHESTER ROAD at AIR PARK STREET,st 1765,35.051589,-89.930846,,0,1:WINAIREF,3
0:WINGEREF,WINCHESTER ROAD at GERONIMO COURT,st 1766,35.051456,-89.924081,,0,1:WINGEREF,3
0:GOOWINNF,GOODLETT STREET at WINCHESTER ROAD,st 2709,35.052177,-89.921857,,0,1:GOOWINNF,3
0:GOOWINNN,GOODLETT STREET at WINDY HOLLOW,st 2710,35.053982,-89.921787,,0,1:GOOWINNN,3
0:CHESUNEN,CHELSEA AVENUE at SUNSET STREET,st 4583,35.173806,-89.959568,,0,1:CHESUNEN,3
0:CHEORIEF,CHELSEA AVENUE at ORIOLE STREET,st 4584,35.173662,-89.958173,,0,1:CHEORIEF,3
0:CHELOCEN,CHELSEA AVENUE at LOCUST STREET,st 6826,35.173599,-89.957774,,0,1:CHELOCEN,3
0:CHEBROEN,CHELSEA AVENUE at BROOKINS STREET,st 4585,35.1734,-89.955848,,0,1:CHEBROEN,3
0:CHEORREF,CHELSEA AVENUE at ORR STREET,st 4586,35.173327,-89.954387,,0,1:CHEORREF,3
0:CHEASHEF,CHELSEA AVENUE at ASH STREET,st 4587,35.173308,-89.953434,,0,1:CHEASHEF,3
0:CHEELLEN,CHELSEA AVENUE at ELLINGTON STREET,st 4588,35.173235,-89.951032,,0,1:CHEELLEN,3
0:DANCORNN,DANNY THOMAS BOULEVARD at CORRINE AVENUE,st 664,35.179465,-90.035555,,0,1:DANCORNN,3
0:ELLECHEN,ELLISTON ROAD at ECHLES STREET,st 4193,35.086781,-89.935604,,0,1:ELLECHEN,3
0:WALSHAEN,EAST WALDORF AVENUE at SHADOWLAWN BLVD,st 5081,35.105338,-90.048222,,0,1:WALSHAEN,3
0:WALWELEN,WALDORF AVENUE at WELLINGTON STREET,st 5082,35.105311,-90.047038,,0,1:WALWELEN,3
0:OUTRAISM,OUTLAND ROAD at RAINES ROAD,st 7196,35.037984,-89.901813,,0,1:OUTRAISM,3
0:JACWARNN,JACKSON AVENUE at WARFORD STREET,st 3920,35.159904,-89.962942,,0,1:JACWARNN,3
0:JACTILEN,JACKSON AVENUE at TILLMAN STREET,st 3921,35.160795,-89.960284,,0,1:JACTILEN,3
0:JACPOPEF,JACKSON AVENUE at POPE STREET,st 3922,35.161437,-89.958534,,0,1:JACPOPEF,3
0:JACHUDEN,JACKSON AVENUE at HUDSON STREET,st 3923,35.16256,-89.956086,,0,1:JACHUDEN,3
0:MACHOLEF,MACON ROAD at HOLMES ROAD,st 3925,35.163065,-89.950782,,0,1:MACHOLEF,3
0:JACEVEEN,JACKSON AVENUE at EVERGREEN STREET,st 3904,35.160728,-90.001046,,0,1:JACEVEEN,3
0:CANPARWN,CANARY LANE at PARAKEET ROAD,st 5853,35.046805,-90.100513,,0,1:CANPARWN,3
0:FLOCOLSN,FLORIDA STREET at COLORADO AVENUE,st 4469,35.120908,-90.062159,,0,1:FLOCOLSN,3
0:FLOHAPSM,FLORIDA STREET at HAPPILAND PLACE,st 4470,35.118709,-90.062259,,0,1:FLOHAPSM,3
0:FLOHAPSN,FLORIDA STREET at HAPPILAND PLACE,st 4471,35.116841,-90.062314,,0,1:FLOHAPSN,3
0:MACHOLWN,MACON ROAD at HOLMES ROAD,st 3996,35.163234,-89.950793,,0,1:MACHOLWN,3
0:SYCSUMNF,SYCAMORE VIEW ROAD at SUMMER AVENUE,st 7072,35.172256,-89.868501,,0,1:SYCSUMNF,3
0:CHEEVEWM,CHELSEA AVENUE at EVERGREEN STREET,st 1599,35.172706,-89.997973,,0,1:CHEEVEWM,3
0:CHEWILWM,CHELSEA AVENUE at WILLETT STREET,st 1600,35.172803,-90.00089,,0,1:CHEWILWM,3
0:JACPOPSF,JACKSON AVENUE at POPE STREET,st 3738,35.161392,-89.959323,,0,1:JACPOPSF,3
0:UNISCOEN,UNION AVENUE at SOUTH COX STREET,st 3050,35.133865,-89.988155,,0,1:UNISCOEN,3
0:UNIEDGEN,UNION AVENUE at EDGEWOOD STREET,st 3051,35.133721,-89.986584,,0,1:UNIEDGEN,3
0:JACSPEWN,JACKSON AVENUE at SPEED STREET,st 3762,35.158312,-90.013258,,0,1:JACSPEWN,3
0:JACCLAWN,JACKSON AVENUE at CLAYBROOK STREET,st 3763,35.158429,-90.014941,,0,1:JACCLAWN,3
0:PELSKYNN,PELICAN LANE at SKYLARK DRIVE,st 5855,35.0476,-90.103619,,0,1:PELSKYNN,3
0:SKYPELEF,SKYLARK DRIVE at PELICAN LANE,st 5856,35.047984,-90.103465,,0,1:SKYPELEF,3
0:KIRTIMNN,KIRBY PARKWAY at TIMBER TRAIL,st 7215,35.038537,-89.846945,,0,1:KIRTIMNN,3
0:CENEPAWM,CENTRAL AVENUE at EAST PARKWAY,st 3325,35.125951,-89.982254,,0,1:CENEPAWM,3
0:CENEPAWF,CENTRAL AVENUE at EAST PARKWAY SOUTH,st 3526,35.126016,-89.984733,,0,1:CENEPAWF,3
0:CENPHIWN,CENTRAL AVENUE at PHILADELPHIA STREET,st 3527,35.126017,-89.98584,,0,1:CENPHIWN,3
0:CENNEWWN,CENTRAL AVENUE at NEW YORK STREET,st 3528,35.126026,-89.987035,,0,1:CENNEWWN,3
0:STAMULEM,STATE ROAD at MULLINS STATION ROAD,st 4027,35.154039,-89.855897,,0,1:STAMULEM,3
0:STAMULEN,MULLINS STATION ROAD at STATE ROAD,st 4028,35.154462,-89.851747,,0,1:STAMULEN,3
0:RALBAREF,RALEIGH LAGRANGE ROAD at BARTLETT ROAD,st 7067,35.184472,-89.879654,,0,1:RALBAREF,3
0:RALPENEF,RALEIGH LAGRANGE ROAD at PENNINGTON GAP,st 7068,35.183133,-89.875084,,0,1:RALPENEF,3
0:SYCRALSF,SYCAMORE VIEW RD at RALEIGH LAGRANGE RD,st 7069,35.182314,-89.871564,,0,1:SYCRALSF,3
0:RALHOOSF,RALEIGH LAGRANGE ROAD at HOOVER DRIVE,st 1074,35.197771,-89.904276,,0,1:RALHOOSF,3
0:RALDEVSF,RALEIGH LAGRANGE ROAD at DEVEREUX DRIVE,st 1075,35.195945,-89.901876,,0,1:RALDEVSF,3
0:RALBATSN,RALEIGH LAGRANGE RD at BATTLE CREEEK DR,st 1076,35.195138,-89.900006,,0,1:RALBATSN,3
0:COVCHISM,COVINGTON PIKE at CHISWOOD STREET,st 1078,35.191816,-89.895982,,0,1:COVCHISM,3
0:COVPL1SM,SHELBY OAKS DRIVE at SYCAMORE VIEW ROAD,st 1082,35.176867,-89.896802,,0,1:COVPL1SM,3
0:WARFERSN,WARING ROAD at FERNDALE ROAD,st 1088,35.158734,-89.915707,,0,1:WARFERSN,3
0:WAROWESN,WARING ROAD at OWEN ROAD,st 1089,35.155955,-89.915779,,0,1:WAROWESN,3
0:WARPOWSM,WARING ROAD at POWELL AVENUE,st 1090,35.154588,-89.915837,,0,1:WARPOWSM,3
0:OAKCASSN,OAKSHIRE STREET at CLEWOOD AVENUE,st 5922,35.040265,-90.091646,,0,1:OAKCASSN,3
0:WESNORSM,WESTMONT ROAD at NORFLEET AVENUE,st 5923,35.039014,-90.092567,,0,1:WESNORSM,3
0:WESNORSN,WESTMONT ROAD at NORFLEET AVENUE,st 5924,35.037995,-90.092573,,0,1:WESNORSN,3
0:WESCAVSN,WESTMONT ROAD at CAVALIER DRIVE,st 5925,35.036752,-90.092573,,0,1:WESCAVSN,3
0:THIHORNM,3RD STREET at HORN LAKE ROAD,st 5049,35.037023,-90.07144,,0,1:THIHORNM,3
0:THIHORNN,3RD STREET at HORN LAKE ROAD,st 5050,35.038721,-90.069771,,0,1:THIHORNN,3
0:THILEVNN,3RD STREET at WEST LEVI ROAD,st 5051,35.04268,-90.066024,,0,1:THILEVNN,3
0:OAKLEVSF,OAKSHIRE STREET at LEVI ROAD,st 5921,35.041756,-90.091633,,0,1:OAKLEVSF,3
0:WALLAKEN,WALNUT GROVE ROAD at LAKE DRIVE,st 3081,35.130876,-89.900813,,0,1:WALLAKEN,3
0:WALMENEF,WALNUT GROVE ROAD at MENDENHALL ROAD,st 2889,35.130612,-89.89767,,0,1:WALMENEF,3
0:WALLAVEN,WALNUT GROVE ROAD at LAVERNE LANE,st 2891,35.13045,-89.890633,,0,1:WALLAVEN,3
0:WALWHIEN,WALNUT GROVE ROAD at WHITE STATION ROAD,st 2892,35.130383,-89.887601,,0,1:WALWHIEN,3
0:NEWSTANM,NEW BRUNSWICK ROAD at STAGE ROAD,st 4024,35.202469,-89.778447,,0,1:NEWSTANM,3
0:FLOGEONN,FLORIDA STREET at GEORGIA AVENUE,st 4483,35.129022,-90.061693,,0,1:FLOGEONN,3
0:POPMENEF,POPLAR AVENUE at MENDENHALL ROAD,st 1944,35.112789,-89.895486,,0,1:POPMENEF,3
0:POPTRUEN,POPLAR AVENUE at TRUSE PARKWAY,st 1945,35.111543,-89.893055,,0,1:POPTRUEN,3
0:POPEBREN,POPLAR AVENUE at EAST BROOKHAVEN CIRCLE,st 7138,35.109939,-89.890061,,0,1:POPEBREN,3
0:POPOAKEM,POPLAR AVENUE at OAK HILL ROAD,st 1966,35.09776,-89.835579,,0,1:POPOAKEM,3
0:POPGROWN,POPLAR AVENUE at GROVE PARK ROAD,st 2032,35.11829,-89.911451,,0,1:POPGROWN,3
0:POPOA2WN,POPLAR AVENUE at OAK COURT DRIVE,st 2033,35.119303,-89.913927,,0,1:POPOA2WN,3
0:POPCHEWM,POPLAR AVENUE at CHERRY ROAD,st 2034,35.119985,-89.915575,,0,1:POPCHEWM,3
0:POPCHEWF,POPLAR AVENUE at CHERRY ROAD,st 2035,35.120998,-89.917929,,0,1:POPCHEWF,3
0:POPGREWF,POPLAR AVENUE at GREENFIELD ROAD,st 2036,35.121661,-89.919422,,0,1:POPGREWF,3
0:POPGOOWN,POPLAR AVENUE at GOODLETT STREET,st 2038,35.123778,-89.92557,,0,1:POPGOOWN,3
0:THICRUSN,3RD STREET at CRUMP BOULEVARD,st 4301,35.124723,-90.054999,,0,1:THICRUSN,3
0:8293,CENTENNIAL DRIVE at HACKS CROSS ROAD,no 233,35.043848,-89.797066,,0,1:8293,3
0:MARHAVSN,MARJORIE STREET at HAVANA STREET,st 4741,35.102823,-90.035291,,0,1:MARHAVSN,3
0:MARPERSM,MARJORIE STREET at PERSON AVENUE,st 4742,35.101474,-90.035612,,0,1:MARPERSM,3
0:MARTAMSN,MARJORIE STREET at TAMPA AVENUE,st 4743,35.099427,-90.03569,,0,1:MARTAMSN,3
0:UNILEMEN,UNION AVENUE at LEMER STREET,st 3042,35.135528,-90.004244,,0,1:UNILEMEN,3
0:SHESHENN,SHELBY OAKS DRIVE at SHELBY OAKS DRIVE,st 6758,35.170427,-89.855054,,0,1:SHESHENN,3
0:SHERALSF,SHELBYVIEW at RALEIGH LAGRANGE ROAD,st 6769,35.179039,-89.849072,,0,1:SHERALSF,3
0:RALWALWN,RALEIGH LAGRANGE ROAD at WALMART DRIVE,st 6806,35.177612,-89.841137,,0,1:RALWALWN,3
0:GOODCBEN,GOODLETT FARMS PKY at CHARLES BRYAN ROAD,st 6706,35.173925,-89.8293,,0,1:GOODCBEN,3
0:APPMAYSN,APPLING ROAD at MAY APPLE DRIVE,st 6705,35.174117,-89.814352,,0,1:APPMAYSN,3
0:DEXAPPEF,DEXTER ROAD at APPLING ROAD,st 6701,35.171981,-89.814403,,0,1:DEXAPPEF,3
0:KANSPANN,KANSAS STREET at SOUTH PARKWAY,st 227,35.10769,-90.064671,,0,1:KANSPANN,3
0:SHETUGWF,SHELBY DRIVE at TUGGLE ROAD,st 2422,35.020622,-89.891949,,0,1:SHETUGWF,3
0:DEXCHINF,DEXTER ROAD at CHICKERING LANE,st 6703,35.172753,-89.796187,,0,1:DEXCHINF,3
0:GERDEXNF,GERMANTOWN PARKWAY at DEXTER ROAD,st 950,35.174372,-89.792782,,0,1:GERDEXNF,3
0:MILVERNN,MILLARD ROAD at VERNELLE AVENUE,st 5903,35.05084,-90.071993,,0,1:MILVERNN,3
0:FRAWARWN,FRAYSER BOULEVARD at WARFORD STREET,st 1249,35.221484,-89.962757,,0,1:FRAWARWN,3
0:TCHSHESN,TCHULAHOMA ROAD at SHELBY DRIVE,st 2570,35.021826,-89.954769,,0,1:TCHSHESN,3
0:WINAIREN,WINCHESTER RD at AIRWAYS BLVD,st 1751,35.053263,-89.991524,,0,1:WINAIREN,3
0:WINAIRWF,WINCHESTER RD at AIRWAYS BLVD,st 1700,35.053433,-89.991855,,0,1:WINAIRWF,3
0:MACWAREN,MACON ROAD at WARING ROAD,st 3945,35.161963,-89.917516,,0,1:MACWAREN,3
0:MACWEIEN,MACON ROAD at WEINER ROAD,st 1112,35.161925,-89.916044,,0,1:MACWEIEN,3
0:WINTALEN,WINCHESTER ROAD at TALL OAKS CIRCLE,st 1767,35.050842,-89.899142,,0,1:WINTALEN,3
0:WINCLEEF,WINCHESTER ROAD at CLEARBROOK STREET,st 1768,35.050794,-89.896976,,0,1:WINCLEEF,3
0:BROOLDWF,BROOKS ROAD at OLD HORN LAKE ROAD,st 5268,35.063433,-90.07091,,0,1:BROOLDWF,3
0:KNIARRWM,KNIGHT ARNOLD ROAD at ARRENDALE STREET,st 2732,35.062544,-89.907851,,0,1:KNIARRWM,3
0:KNIKNIWF,KNIGHT ARNOLD ROAD at KNIGHT ROAD,st 2733,35.062683,-89.911389,,0,1:KNIKNIWF,3
0:FRASCHWF,FRAYSER BOULEVARD at SCHOOLFIELD ROAD,st 1250,35.221401,-89.970102,,0,1:FRASCHWF,3
0:FRALADWN,FRAYSER BOULEVARD at LADUE STREET,st 1251,35.221367,-89.972362,,0,1:FRALADWN,3
0:MCLFOUWN,MCLEMORE AVENUE at FOUNTAIN COURT,st 4274,35.115629,-90.033625,,0,1:MCLFOUWN,3
0:SOUCLUWN,SOUTHERN AVENUE at CLUB WALK DRIVE,st 3479,35.115473,-89.956509,,0,1:SOUCLUWN,3
0:CANPAREN,CANARY LANE at PARAKEET ROAD,st 5860,35.046358,-90.100966,,0,1:CANPAREN,3
0:SOUMARWN,SOUTHERN AVENUE at MARIANNA STREET,st 3485,35.115727,-89.970649,,0,1:SOUMARWN,3
0:MACDOVWN,MACON ROAD at DOVECREST ROAD,st 4034,35.16306,-89.858373,,0,1:MACDOVWN,3
0:POPBE1WN,POPLAR AVENUE at BELLEVUE BOULEVARD,st 2082,35.144491,-90.020717,,0,1:POPBE1WN,3
0:POPWALWF,POPLAR AVENUE at WALDRAN BOULEVARD,st 2083,35.144787,-90.024049,,0,1:POPWALWF,3
0:POPCOCWN,POPLAR AVENUE at COCHRAN PLACE,st 2084,35.144939,-90.025487,,0,1:POPCOCWN,3
0:POPDECWF,POPLAR AVENUE at DECATUR STREET,st 2085,35.145092,-90.026982,,0,1:POPDECWF,3
0:POPPAUWN,POPLAR AVENUE at PAULINE STREET,st 2086,35.145208,-90.028122,,0,1:POPPAUWN,3
